% (lat/lon/height=WGS84/ellipsoidal,Q=1:fix,2:float,3:sbas,4:dgps,5:single,6:ppp,ns=# of satellites)
%  GPST          latitude(deg) longitude(deg)  height(m)   Q  ns   sdn(m)   sde(m)   sdu(m)  sdne(m)  sdeu(m)  sdun(m) age(s)  ratio    vn(m/s)    ve(m/s)    vu(m/s)      sdvn     sdve     sdvu    sdvne    sdveu    sdvun
2078 583518.000  -15.765940453  -47.872187540  1035.0617   5   7   3.3325   3.5327  10.3446   0.6963  -2.9405   2.6044   0.00    0.0    0.00343    0.00883   -0.00484   0.00000  0.00000  0.00000  0.00000  0.00000  0.00000
2078 583519.000  -15.765938201  -47.872186685  1035.4837   5   7   3.3326   3.5326  10.3428   0.6966  -2.9394   2.6042   0.00    0.0   -0.01769    0.00138    0.00418   0.00000  0.00000  0.00000  0.00000  0.00000  0.00000
2078 583520.000  -15.765937530  -47.872183903  1035.6714   5   7   3.3327   3.5325  10.3411   0.6968  -2.9383   2.6041   0.00    0.0   -0.00678    0.00540   -0.02214   0.00000  0.00000  0.00000  0.00000  0.00000  0.00000
2078 583521.000  -15.765936525  -47.872185243  1035.1024   5   7   3.3328   3.5324  10.3394   0.6971  -2.9372   2.6040   0.00    0.0    0.01508    0.01868    0.01117   0.00000  0.00000  0.00000  0.00000  0.00000  0.00000
2078 583522.000  -15.765934841  -47.872182927  1035.7079   5   7   3.3330   3.5323  10.3376   0.6974  -2.9361   2.6038   0.00    0.0   -0.02122   -0.01002    0.01561   0.00000  0.00000  0.00000  0.00000  0.00000  0.00000
2078 583523.000  -15.765932611  -47.872182556  1034.9744   5   7   3.3331   3.5323  10.3359   0.6977  -2.9350   2.6037   0.00    0.0   -0.00395    0.01224    0.00908   0.00000  0.00000  0.00000  0.00000  0.00000  0.00000
2078 583524.000  -15.765930818  -47.872180047  1035.6166   5   7   3.3332   3.5322  10.3342   0.6979  -2.9339   2.6036   0.00    0.0   -0.00186    0.00396   -0.01471   0.00000  0.00000  0.00000  0.00000  0.00000  0.00000
2078 583525.000  -15.765930660  -47.872179413  1035.5682   5   7   3.3334   3.5321  10.3325   0.6982  -2.9328   2.6034   0.00    0.0   -0.01980    0.01479    0.04241   0.00000  0.00000  0.00000  0.00000  0.00000  0.00000
2078 583526.000  -15.765921117  -47.872174029  1035.8917   5  12   2.7896   3.1079   7.6778   0.4501  -2.0767   1.5753   0.00    0.0   -0.01127    0.00589    0.00416   0.00000  0.00000  0.00000  0.00000  0.00000  0.00000
2078 583527.000  -15.765920337  -47.872172406  1036.1230   5  12   2.7897   3.1078   7.6768   0.4503  -2.0758   1.5751   0.00    0.0   -0.00937    0.01536    0.00080   0.00000  0.00000  0.00000  0.00000  0.00000  0.00000
2078 583528.000  -15.765921050  -47.872174493  1035.8509   5  12   2.7897   3.1078   7.6757   0.4504  -2.0748   1.5750   0.00    0.0   -0.01296   -0.01921   -0.01522   0.00000  0.00000  0.00000  0.00000  0.00000  0.00000
2078 583529.000  -15.765921190  -47.872173570  1036.4451   5  12   2.7898   3.1077   7.6746   0.4506  -2.0739   1.5748   0.00    0.0    0.00200    0.00669   -0.02698   0.00000  0.00000  0.00000  0.00000  0.00000  0.00000
2078 583530.000  -15.765922517  -47.872175084  1035.9670   5  12   2.7898   3.1076   7.6736   0.4507  -2.0730   1.5746   0.00    0.0   -0.01103    0.00476   -0.03729   0.00000  0.00000  0.00000  0.00000  0.00000  0.00000
2078 583531.000  -15.765923831  -47.872174741  1035.8572   5  12   2.7899   3.1076   7.6725   0.4509  -2.0721   1.5744   0.00    0.0    0.00704    0.00426    0.04318   0.00000  0.00000  0.00000  0.00000  0.00000  0.00000
2078 583532.000  -15.765925186  -47.872176920  1035.4391   5  12   2.7899   3.1075   7.6714   0.4510  -2.0712   1.5742   0.00    0.0    0.01171    0.00810    0.01490   0.00000  0.00000  0.00000  0.00000  0.00000  0.00000
2078 583533.000  -15.765926133  -47.872178654  1035.0871   5  12   2.7900   3.1074   7.6704   0.4512  -2.0702   1.5740   0.00    0.0   -0.00154    0.02317   -0.05893   0.00000  0.00000  0.00000  0.00000  0.00000  0.00000
2078 583534.000  -15.765927789  -47.872177656  1034.9568   5  12   2.7900   3.1074   7.6693   0.4514  -2.0693   1.5738   0.00    0.0    0.02543   -0.00775    0.00192   0.00000  0.00000  0.00000  0.00000  0.00000  0.00000
2078 583535.000  -15.765928475  -47.872177954  1034.5820   5  12   2.7901   3.1073   7.6682   0.4515  -2.0684   1.5736   0.00    0.0    0.00613    0.01095   -0.05528   0.00000  0.00000  0.00000  0.00000  0.00000  0.00000
2078 583536.000  -15.765930752  -47.872179207  1034.7732   5  12   2.7901   3.1073   7.6672   0.4517  -2.0675   1.5734   0.00    0.0   -0.00289   -0.00228   -0.05013   0.00000  0.00000  0.00000  0.00000  0.00000  0.00000
2078 583537.000  -15.765931686  -47.872180789  1034.4138   5  12   2.7902   3.1072   7.6661   0.4518  -2.0665   1.5733   0.00    0.0   -0.00451    0.01900    0.00295   0.00000  0.00000  0.00000  0.00000  0.00000  0.00000
2078 583538.000  -15.765932243  -47.872180879  1034.9774   5  12   2.7902   3.1071   7.6651   0.4520  -2.0656   1.5731   0.00    0.0   -0.01115    0.00311   -0.01599   0.00000  0.00000  0.00000  0.00000  0.00000  0.00000
2078 583539.000  -15.765933560  -47.872181746  1034.8233   5  12   2.7903   3.1071   7.6640   0.4521  -2.0647   1.5729   0.00    0.0   -0.01395    0.00790    0.00030   0.00000  0.00000  0.00000  0.00000  0.00000  0.00000
2078 583540.000  -15.765932851  -47.872181434  1035.1255   5  12   2.7903   3.1070   7.6629   0.4523  -2.0638   1.5727   0.00    0.0    0.02009   -0.00188    0.00219   0.00000  0.00000  0.00000  0.00000  0.00000  0.00000
2078 583541.000  -15.765933639  -47.872185302  1035.1007   5  12   2.7904   3.1069   7.6619   0.4525  -2.0629   1.5725   0.00    0.0   -0.01019   -0.00539   -0.00020   0.00000  0.00000  0.00000  0.00000  0.00000  0.00000
2078 583542.000  -15.765932970  -47.872183445  1035.3752   5  12   2.7904   3.1069   7.6608   0.4526  -2.0619   1.5723   0.00    0.0    0.01076    0.01242    0.01425   0.00000  0.00000  0.00000  0.00000  0.00000  0.00000
2078 583543.000  -15.765933662  -47.872184628  1035.7294   5  12   2.7905   3.1068   7.6597   0.4528  -2.0610   1.5721   0.00    0.0   -0.00621   -0.00487   -0.00318   0.00000  0.00000  0.00000  0.00000  0.00000  0.00000
2078 583544.000  -15.765934523  -47.872185534  1035.4235   5  12   2.7905   3.1068   7.6587   0.4529  -2.0601   1.5719   0.00    0.0   -0.00139   -0.00046    0.00565   0.00000  0.00000  0.00000  0.00000  0.00000  0.00000
2078 583545.000  -15.765934550  -47.872185637  1035.9296   5  12   2.7906   3.1067   7.6576   0.4531  -2.0592   1.5717   0.00    0.0    0.00912   -0.00172    0.03417   0.00000  0.00000  0.00000  0.00000  0.00000  0.00000
2078 583546.000  -15.765933725  -47.872184932  1036.5329   5  12   2.7906   3.1066   7.6566   0.4532  -2.0582   1.5715   0.00    0.0   -0.01524   -0.00271   -0.04630   0.00000  0.00000  0.00000  0.00000  0.00000  0.00000
2078 583547.000  -15.765932021  -47.872185116  1037.2612   5  12   2.7907   3.1066   7.6555   0.4534  -2.0573   1.5713   0.00    0.0   -0.00123   -0.01385    0.02145   0.00000  0.00000  0.00000  0.00000  0.00000  0.00000
2078 583548.000  -15.765933861  -47.872184877  1037.4500   5  12   2.7908   3.1065   7.6544   0.4535  -2.0564   1.5712   0.00    0.0   -0.00569   -0.00548   -0.00649   0.00000  0.00000  0.00000  0.00000  0.00000  0.00000
2078 583549.000  -15.765934129  -47.872184446  1038.0793   5  12   2.7908   3.1064   7.6534   0.4537  -2.0555   1.5710   0.00    0.0   -0.00400   -0.00740    0.00485   0.00000  0.00000  0.00000  0.00000  0.00000  0.00000
2078 583550.000  -15.765933487  -47.872184225  1037.7040   5  12   2.7909   3.1064   7.6523   0.4539  -2.0545   1.5708   0.00    0.0   -0.00464   -0.00362   -0.02146   0.00000  0.00000  0.00000  0.00000  0.00000  0.00000
2078 583551.000  -15.765932085  -47.872184234  1037.8367   5  12   2.7909   3.1063   7.6513   0.4540  -2.0536   1.5706   0.00    0.0   -0.00333    0.01077   -0.03418   0.00000  0.00000  0.00000  0.00000  0.00000  0.00000
2078 583552.000  -15.765931376  -47.872187835  1037.7216   5  12   2.7910   3.1063   7.6502   0.4542  -2.0527   1.5704   0.00    0.0   -0.00272   -0.02919   -0.00211   0.00000  0.00000  0.00000  0.00000  0.00000  0.00000
2078 583553.000  -15.765930066  -47.872186772  1037.8899   5  12   2.7910   3.1062   7.6492   0.4543  -2.0518   1.5702   0.00    0.0    0.01997   -0.00274    0.03136   0.00000  0.00000  0.00000  0.00000  0.00000  0.00000
2078 583554.000  -15.765930434  -47.872187116  1037.9131   5  12   2.7911   3.1061   7.6481   0.4545  -2.0509   1.5700   0.00    0.0   -0.01562   -0.02451    0.02739   0.00000  0.00000  0.00000  0.00000  0.00000  0.00000
2078 583555.000  -15.765929653  -47.872185025  1038.2521   5  12   2.7911   3.1061   7.6470   0.4546  -2.0499   1.5698   0.00    0.0   -0.01057    0.02902   -0.08375   0.00000  0.00000  0.00000  0.00000  0.00000  0.00000
2078 583556.000  -15.765929838  -47.872185948  1037.3054   5  12   2.7912   3.1060   7.6460   0.4548  -2.0490   1.5696   0.00    0.0   -0.00993    0.00454   -0.02258   0.00000  0.00000  0.00000  0.00000  0.00000  0.00000
2078 583557.000  -15.765929556  -47.872184994  1037.2873   5  12   2.7912   3.1060   7.6449   0.4549  -2.0481   1.5694   0.00    0.0   -0.01828   -0.01313    0.01374   0.00000  0.00000  0.00000  0.00000  0.00000  0.00000
2078 583558.000  -15.765928408  -47.872185005  1037.0277   5  12   2.7913   3.1059   7.6439   0.4551  -2.0472   1.5692   0.00    0.0   -0.01285    0.00823   -0.07867   0.00000  0.00000  0.00000  0.00000  0.00000  0.00000
2078 583559.000  -15.765927262  -47.872179964  1037.0748   5  12   2.7913   3.1058   7.6428   0.4553  -2.0462   1.5690   0.00    0.0    0.02275    0.02003   -0.01119   0.00000  0.00000  0.00000  0.00000  0.00000  0.00000
2078 583560.000  -15.765926893  -47.872179753  1036.7442   5  12   2.7914   3.1058   7.6418   0.4554  -2.0453   1.5688   0.00    0.0    0.00475   -0.00388    0.04561   0.00000  0.00000  0.00000  0.00000  0.00000  0.00000
2078 583561.000  -15.765925171  -47.872177970  1036.6999   5  12   2.7914   3.1057   7.6407   0.4556  -2.0444   1.5686   0.00    0.0    0.01888   -0.00053   -0.03728   0.00000  0.00000  0.00000  0.00000  0.00000  0.00000
2078 583562.000  -15.765924382  -47.872179408  1036.6334   5  12   2.7915   3.1056   7.6397   0.4557  -2.0435   1.5684   0.00    0.0   -0.00554   -0.00357    0.01298   0.00000  0.00000  0.00000  0.00000  0.00000  0.00000
2078 583563.000  -15.765922420  -47.872177640  1036.2690   5  12   2.7915   3.1056   7.6386   0.4559  -2.0425   1.5683   0.00    0.0    0.00834   -0.01597    0.03484   0.00000  0.00000  0.00000  0.00000  0.00000  0.00000
2078 583564.000  -15.765923415  -47.872180896  1036.3609   5  12   2.7916   3.1055   7.6375   0.4560  -2.0416   1.5681   0.00    0.0   -0.01487    0.02959   -0.03701   0.00000  0.00000  0.00000  0.00000  0.00000  0.00000
2078 583565.000  -15.765922808  -47.872178011  1036.3799   5  12   2.7916   3.1055   7.6365   0.4562  -2.0407   1.5679   0.00    0.0    0.01145   -0.00803    0.01031   0.00000  0.00000  0.00000  0.00000  0.00000  0.00000
2078 583566.000  -15.765921818  -47.872178083  1036.0873   5  12   2.7917   3.1054   7.6354   0.4563  -2.0397   1.5677   0.00    0.0   -0.02323   -0.00895    0.02233   0.00000  0.00000  0.00000  0.00000  0.00000  0.00000
2078 583567.000  -15.765920710  -47.872179411  1036.6388   5  12   2.7917   3.1053   7.6344   0.4565  -2.0388   1.5675   0.00    0.0   -0.00270   -0.01162   -0.00501   0.00000  0.00000  0.00000  0.00000  0.00000  0.00000
2078 583568.000  -15.765920564  -47.872178679  1036.2095   5  12   2.7918   3.1053   7.6333   0.4567  -2.0379   1.5673   0.00    0.0   -0.03845   -0.00644   -0.04024   0.00000  0.00000  0.00000  0.00000  0.00000  0.00000
2078 583569.000  -15.765920290  -47.872178958  1035.9155   5  12   2.7919   3.1052   7.6323   0.4568  -2.0370   1.5671   0.00    0.0    0.01356   -0.01689    0.02381   0.00000  0.00000  0.00000  0.00000  0.00000  0.00000
2078 583570.000  -15.765920887  -47.872177267  1035.3471   5  12   2.7919   3.1052   7.6312   0.4570  -2.0360   1.5669   0.00    0.0   -0.01493   -0.01895   -0.02861   0.00000  0.00000  0.00000  0.00000  0.00000  0.00000
2078 583571.000  -15.765922730  -47.872178592  1035.2004   5  12   2.7920   3.1051   7.6302   0.4571  -2.0351   1.5667   0.00    0.0   -0.00089    0.00877    0.02297   0.00000  0.00000  0.00000  0.00000  0.00000  0.00000
2078 583572.000  -15.765924131  -47.872180084  1035.5367   5  12   2.7920   3.1050   7.6291   0.4573  -2.0342   1.5665   0.00    0.0    0.00228   -0.02875   -0.00246   0.00000  0.00000  0.00000  0.00000  0.00000  0.00000
2078 583573.000  -15.765923769  -47.872181498  1035.0272   5  12   2.7921   3.1050   7.6281   0.4574  -2.0333   1.5663   0.00    0.0   -0.01458    0.00417   -0.01028   0.00000  0.00000  0.00000  0.00000  0.00000  0.00000
2078 583574.000  -15.765924717  -47.872180101  1035.4017   5  12   2.7921   3.1049   7.6270   0.4576  -2.0323   1.5661   0.00    0.0   -0.00703    0.00401   -0.00211   0.00000  0.00000  0.00000  0.00000  0.00000  0.00000
2078 583575.000  -15.765924296  -47.872179957  1034.7802   5  12   2.7922   3.1049   7.6260   0.4577  -2.0314   1.5659   0.00    0.0   -0.01442    0.00392   -0.02171   0.00000  0.00000  0.00000  0.00000  0.00000  0.00000
2078 583576.000  -15.765926781  -47.872178671  1035.2657   5  12   2.7922   3.1048   7.6249   0.4579  -2.0305   1.5657   0.00    0.0    0.02182   -0.00954   -0.01792   0.00000  0.00000  0.00000  0.00000  0.00000  0.00000
2078 583577.000  -15.765929727  -47.872181210  1035.4380   5  12   2.7923   3.1047   7.6239   0.4580  -2.0295   1.5655   0.00    0.0   -0.00705    0.00235   -0.05307   0.00000  0.00000  0.00000  0.00000  0.00000  0.00000
2078 583578.000  -15.765930331  -47.872179686  1036.0072   5  12   2.7923   3.1047   7.6228   0.4582  -2.0286   1.5653   0.00    0.0   -0.00064    0.01813   -0.07696   0.00000  0.00000  0.00000  0.00000  0.00000  0.00000
2078 583579.000  -15.765932294  -47.872179811  1035.5199   5  12   2.7924   3.1046   7.6218   0.4583  -2.0277   1.5651   0.00    0.0   -0.01915    0.01297   -0.05232   0.00000  0.00000  0.00000  0.00000  0.00000  0.00000
2078 583580.000  -15.765933205  -47.872178172  1036.0191   5  12   2.7924   3.1046   7.6207   0.4585  -2.0268   1.5649   0.00    0.0    0.00725   -0.00897    0.05651   0.00000  0.00000  0.00000  0.00000  0.00000  0.00000
2078 583581.000  -15.765932722  -47.872178533  1035.6725   5  12   2.7925   3.1045   7.6197   0.4587  -2.0258   1.5647   0.00    0.0    0.01984    0.00519    0.00279   0.00000  0.00000  0.00000  0.00000  0.00000  0.00000
2078 583582.000  -15.765934308  -47.872178650  1036.0393   5  12   2.7925   3.1044   7.6186   0.4588  -2.0249   1.5645   0.00    0.0   -0.00771   -0.00650   -0.00322   0.00000  0.00000  0.00000  0.00000  0.00000  0.00000
2078 583583.000  -15.765936128  -47.872178922  1036.3571   5  12   2.7926   3.1044   7.6176   0.4590  -2.0240   1.5643   0.00    0.0   -0.02160    0.00552    0.01314   0.00000  0.00000  0.00000  0.00000  0.00000  0.00000
2078 583584.000  -15.765936573  -47.872181157  1036.1129   5  12   2.7926   3.1043   7.6165   0.4591  -2.0230   1.5641   0.00    0.0    0.01106   -0.01601   -0.02991   0.00000  0.00000  0.00000  0.00000  0.00000  0.00000
2078 583585.000  -15.765937082  -47.872179794  1036.1838   5  12   2.7927   3.1043   7.6155   0.4593  -2.0221   1.5639   0.00    0.0   -0.01193   -0.01096   -0.02374   0.00000  0.00000  0.00000  0.00000  0.00000  0.00000
2078 583586.000  -15.765938391  -47.872177697  1035.2839   5  12   2.7927   3.1042   7.6144   0.4594  -2.0212   1.5637   0.00    0.0    0.01366   -0.00009   -0.00511   0.00000  0.00000  0.00000  0.00000  0.00000  0.00000
2078 583587.000  -15.765937639  -47.872174370  1034.5160   5  12   2.7928   3.1041   7.6134   0.4596  -2.0203   1.5635   0.00    0.0    0.00342    0.00062    0.00689   0.00000  0.00000  0.00000  0.00000  0.00000  0.00000
2078 583588.000  -15.765938665  -47.872172545  1034.2039   5  12   2.7928   3.1041   7.6123   0.4597  -2.0193   1.5634   0.00    0.0    0.01093    0.01040   -0.00455   0.00000  0.00000  0.00000  0.00000  0.00000  0.00000
2078 583589.000  -15.765940203  -47.872172290  1034.1853   5  12   2.7929   3.1040   7.6113   0.4599  -2.0184   1.5632   0.00    0.0   -0.01873    0.01894   -0.04308   0.00000  0.00000  0.00000  0.00000  0.00000  0.00000
2078 583590.000  -15.765939011  -47.872171506  1033.8174   5  12   2.7929   3.1040   7.6102   0.4600  -2.0175   1.5630   0.00    0.0    0.00013    0.01698   -0.02378   0.00000  0.00000  0.00000  0.00000  0.00000  0.00000
2078 583591.000  -15.765938594  -47.872171035  1033.4717   5  12   2.7930   3.1039   7.6092   0.4602  -2.0165   1.5628   0.00    0.0    0.01014   -0.01862    0.00825   0.00000  0.00000  0.00000  0.00000  0.00000  0.00000
2078 583592.000  -15.765937205  -47.872171003  1033.1035   5  12   2.7931   3.1039   7.6081   0.4603  -2.0156   1.5626   0.00    0.0   -0.00207    0.00598   -0.01120   0.00000  0.00000  0.00000  0.00000  0.00000  0.00000
2078 583593.000  -15.765935413  -47.872173176  1032.6962   5  12   2.7931   3.1038   7.6071   0.4605  -2.0147   1.5624   0.00    0.0   -0.00933   -0.00445    0.03830   0.00000  0.00000  0.00000  0.00000  0.00000  0.00000
2078 583594.000  -15.765934553  -47.872172558  1032.9981   5  12   2.7932   3.1037   7.6061   0.4607  -2.0137   1.5622   0.00    0.0    0.01809   -0.00333    0.05085   0.00000  0.00000  0.00000  0.00000  0.00000  0.00000
2078 583595.000  -15.765933715  -47.872172149  1033.1420   5  12   2.7932   3.1037   7.6050   0.4608  -2.0128   1.5620   0.00    0.0   -0.01162   -0.00448   -0.03352   0.00000  0.00000  0.00000  0.00000  0.00000  0.00000
2078 583596.000  -15.765931717  -47.872174130  1033.1861   5  12   2.7933   3.1036   7.6040   0.4610  -2.0119   1.5618   0.00    0.0   -0.00853    0.00276   -0.01798   0.00000  0.00000  0.00000  0.00000  0.00000  0.00000
2078 583597.000  -15.765932522  -47.872174985  1033.6893   5  12   2.7933   3.1036   7.6029   0.4611  -2.0109   1.5616   0.00    0.0   -0.01338   -0.01514   -0.00247   0.00000  0.00000  0.00000  0.00000  0.00000  0.00000
2078 583598.000  -15.765932985  -47.872175585  1033.8736   5  12   2.7934   3.1035   7.6019   0.4613  -2.0100   1.5614   0.00    0.0   -0.00566   -0.00493    0.00705   0.00000  0.00000  0.00000  0.00000  0.00000  0.00000
2078 583599.000  -15.765933531  -47.872175220  1033.9609   5  12   2.7934   3.1034   7.6008   0.4614  -2.0091   1.5612   0.00    0.0    0.00437    0.02019    0.01748   0.00000  0.00000  0.00000  0.00000  0.00000  0.00000
2078 583600.000  -15.765934434  -47.872177752  1033.8018   5  12   2.7935   3.1034   7.5998   0.4616  -2.0082   1.5610   0.00    0.0    0.01925   -0.01138    0.05353   0.00000  0.00000  0.00000  0.00000  0.00000  0.00000
2078 583601.000  -15.765934491  -47.872177349  1034.0918   5  12   2.7935   3.1033   7.5987   0.4617  -2.0072   1.5608   0.00    0.0   -0.00120   -0.00065   -0.00030   0.00000  0.00000  0.00000  0.00000  0.00000  0.00000
2078 583602.000  -15.765935783  -47.872180084  1035.3220   5  12   2.7936   3.1033   7.5977   0.4619  -2.0063   1.5606   0.00    0.0   -0.01777    0.00380   -0.06278   0.00000  0.00000  0.00000  0.00000  0.00000  0.00000
2078 583603.000  -15.765937772  -47.872183520  1035.5865   5  12   2.7936   3.1032   7.5967   0.4620  -2.0054   1.5604   0.00    0.0   -0.02430    0.01362   -0.01223   0.00000  0.00000  0.00000  0.00000  0.00000  0.00000
2078 583604.000  -15.765938067  -47.872183716  1035.9406   5  12   2.7937   3.1032   7.5956   0.4622  -2.0044   1.5602   0.00    0.0    0.00650   -0.00296   -0.02694   0.00000  0.00000  0.00000  0.00000  0.00000  0.00000
2078 583605.000  -15.765937843  -47.872185683  1036.6087   5  12   2.7937   3.1031   7.5946   0.4623  -2.0035   1.5600   0.00    0.0    0.01144   -0.01560    0.05829   0.00000  0.00000  0.00000  0.00000  0.00000  0.00000
2078 583606.000  -15.765938797  -47.872187996  1036.4499   5  12   2.7938   3.1030   7.5935   0.4625  -2.0026   1.5598   0.00    0.0   -0.00120    0.01087    0.02750   0.00000  0.00000  0.00000  0.00000  0.00000  0.00000
2078 583607.000  -15.765938339  -47.872187008  1036.5389   5  12   2.7938   3.1030   7.5925   0.4626  -2.0016   1.5596   0.00    0.0   -0.00081   -0.02289    0.05768   0.00000  0.00000  0.00000  0.00000  0.00000  0.00000
2078 583608.000  -15.765938129  -47.872188614  1036.5547   5  12   2.7939   3.1029   7.5915   0.4628  -2.0007   1.5594   0.00    0.0   -0.00190   -0.01788    0.07633   0.00000  0.00000  0.00000  0.00000  0.00000  0.00000
2078 583609.000  -15.765938325  -47.872190159  1037.2801   5  12   2.7939   3.1029   7.5904   0.4629  -1.9998   1.5592   0.00    0.0    0.01072    0.00365   -0.03135   0.00000  0.00000  0.00000  0.00000  0.00000  0.00000
2078 583610.000  -15.765938187  -47.872190089  1037.3484   5  12   2.7940   3.1028   7.5894   0.4631  -1.9988   1.5590   0.00    0.0    0.01227    0.00152    0.01196   0.00000  0.00000  0.00000  0.00000  0.00000  0.00000
2078 583611.000  -15.765938553  -47.872189864  1037.2101   5  12   2.7941   3.1027   7.5883   0.4632  -1.9979   1.5588   0.00    0.0   -0.00315    0.01935    0.01447   0.00000  0.00000  0.00000  0.00000  0.00000  0.00000
2078 583612.000  -15.765939159  -47.872188021  1037.0705   5  12   2.7941   3.1027   7.5873   0.4634  -1.9970   1.5586   0.00    0.0   -0.00231    0.00313   -0.02290   0.00000  0.00000  0.00000  0.00000  0.00000  0.00000
2078 583613.000  -15.765939866  -47.872187651  1036.8479   5  12   2.7942   3.1026   7.5863   0.4635  -1.9960   1.5584   0.00    0.0   -0.01219    0.01158   -0.01652   0.00000  0.00000  0.00000  0.00000  0.00000  0.00000
2078 583614.000  -15.765940931  -47.872188600  1036.1293   5  12   2.7942   3.1026   7.5852   0.4637  -1.9951   1.5582   0.00    0.0    0.00722    0.01634   -0.01673   0.00000  0.00000  0.00000  0.00000  0.00000  0.00000
2078 583615.000  -15.765941527  -47.872188170  1036.1594   5  12   2.7943   3.1025   7.5842   0.4638  -1.9941   1.5580   0.00    0.0   -0.00089    0.00970   -0.00709   0.00000  0.00000  0.00000  0.00000  0.00000  0.00000
2078 583616.000  -15.765942667  -47.872189299  1035.5167   5  12   2.7943   3.1025   7.5831   0.4640  -1.9932   1.5578   0.00    0.0   -0.01663   -0.00001    0.03097   0.00000  0.00000  0.00000  0.00000  0.00000  0.00000
2078 583617.000  -15.765941352  -47.872190346  1035.2209   5  12   2.7944   3.1024   7.5821   0.4642  -1.9923   1.5575   0.00    0.0   -0.00939   -0.01360    0.01717   0.00000  0.00000  0.00000  0.00000  0.00000  0.00000
2078 583618.000  -15.765941968  -47.872190296  1035.0473   5  12   2.7944   3.1024   7.5811   0.4643  -1.9913   1.5573   0.00    0.0   -0.00652    0.00904    0.01804   0.00000  0.00000  0.00000  0.00000  0.00000  0.00000
2078 583619.000  -15.765943111  -47.872189544  1034.6508   5  12   2.7945   3.1023   7.5800   0.4645  -1.9904   1.5571   0.00    0.0    0.01228   -0.00696    0.01189   0.00000  0.00000  0.00000  0.00000  0.00000  0.00000
2078 583620.000  -15.765941266  -47.872188170  1033.8671   5  12   2.7945   3.1022   7.5790   0.4646  -1.9895   1.5569   0.00    0.0    0.01432   -0.00248    0.05595   0.00000  0.00000  0.00000  0.00000  0.00000  0.00000
2078 583621.000  -15.765940814  -47.872188740  1034.3935   5  12   2.7946   3.1022   7.5779   0.4648  -1.9885   1.5567   0.00    0.0   -0.02022   -0.01247   -0.07971   0.00000  0.00000  0.00000  0.00000  0.00000  0.00000
2078 583622.000  -15.765941269  -47.872190141  1034.4909   5  12   2.7946   3.1021   7.5769   0.4649  -1.9876   1.5565   0.00    0.0    0.00902    0.02152   -0.02537   0.00000  0.00000  0.00000  0.00000  0.00000  0.00000
2078 583623.000  -15.765940966  -47.872191930  1034.7623   5  12   2.7947   3.1021   7.5759   0.4651  -1.9867   1.5563   0.00    0.0   -0.02270    0.00019   -0.08354   0.00000  0.00000  0.00000  0.00000  0.00000  0.00000
2078 583624.000  -15.765939762  -47.872193277  1035.3415   5  12   2.7947   3.1020   7.5748   0.4652  -1.9857   1.5561   0.00    0.0   -0.01276   -0.00924   -0.02246   0.00000  0.00000  0.00000  0.00000  0.00000  0.00000
2078 583625.000  -15.765939400  -47.872194745  1034.8852   5  12   2.7948   3.1020   7.5738   0.4654  -1.9848   1.5559   0.00    0.0   -0.01930   -0.02233    0.02779   0.00000  0.00000  0.00000  0.00000  0.00000  0.00000
2078 583626.000  -15.765940359  -47.872194122  1035.0938   5  12   2.7948   3.1019   7.5728   0.4655  -1.9839   1.5557   0.00    0.0    0.02463    0.03384    0.01265   0.00000  0.00000  0.00000  0.00000  0.00000  0.00000
2078 583627.000  -15.765939468  -47.872190630  1035.1537   5  12   2.7949   3.1018   7.5717   0.4657  -1.9829   1.5555   0.00    0.0   -0.00669   -0.00648   -0.04215   0.00000  0.00000  0.00000  0.00000  0.00000  0.00000
2078 583628.000  -15.765939005  -47.872191656  1035.1249   5  12   2.7949   3.1018   7.5707   0.4658  -1.9820   1.5553   0.00    0.0   -0.00448    0.00093    0.03298   0.00000  0.00000  0.00000  0.00000  0.00000  0.00000
2078 583629.000  -15.765939928  -47.872190862  1035.3448   5  12   2.7950   3.1017   7.5697   0.4660  -1.9810   1.5551   0.00    0.0   -0.01602   -0.01157   -0.02102   0.00000  0.00000  0.00000  0.00000  0.00000  0.00000
2078 583630.000  -15.765939686  -47.872192089  1035.0848   5  12   2.7950   3.1017   7.5686   0.4661  -1.9801   1.5549   0.00    0.0    0.00475   -0.00555   -0.01716   0.00000  0.00000  0.00000  0.00000  0.00000  0.00000
2078 583631.000  -15.765937998  -47.872191553  1034.5634   5  12   2.7951   3.1016   7.5676   0.4663  -1.9792   1.5547   0.00    0.0   -0.01617    0.00073   -0.06107   0.00000  0.00000  0.00000  0.00000  0.00000  0.00000
2078 583632.000  -15.765937715  -47.872190517  1033.6451   5  12   2.7952   3.1016   7.5666   0.4664  -1.9782   1.5545   0.00    0.0   -0.01533    0.02602   -0.03370   0.00000  0.00000  0.00000  0.00000  0.00000  0.00000
2078 583633.000  -15.765934129  -47.872185841  1033.1763   5  12   2.7952   3.1015   7.5655   0.4666  -1.9773   1.5543   0.00    0.0   -0.00835   -0.02714   -0.00004   0.00000  0.00000  0.00000  0.00000  0.00000  0.00000
2078 583634.000  -15.765935117  -47.872185604  1032.0892   5  12   2.7953   3.1015   7.5645   0.4667  -1.9764   1.5541   0.00    0.0   -0.01238   -0.01197   -0.04611   0.00000  0.00000  0.00000  0.00000  0.00000  0.00000
2078 583635.000  -15.765932213  -47.872184575  1031.2556   5  12   2.7953   3.1014   7.5635   0.4669  -1.9754   1.5539   0.00    0.0    0.01164   -0.01522    0.00302   0.00000  0.00000  0.00000  0.00000  0.00000  0.00000
2078 583636.000  -15.765931550  -47.872183918  1030.5561   5  12   2.7954   3.1013   7.5624   0.4670  -1.9745   1.5537   0.00    0.0   -0.01290    0.00663   -0.00286   0.00000  0.00000  0.00000  0.00000  0.00000  0.00000
2078 583637.000  -15.765932138  -47.872183540  1030.2223   5  12   2.7954   3.1013   7.5614   0.4672  -1.9735   1.5535   0.00    0.0   -0.00219   -0.02402    0.01947   0.00000  0.00000  0.00000  0.00000  0.00000  0.00000
2078 583638.000  -15.765931875  -47.872183856  1030.0869   5  12   2.7955   3.1012   7.5604   0.4673  -1.9726   1.5533   0.00    0.0   -0.02743   -0.01528   -0.07828   0.00000  0.00000  0.00000  0.00000  0.00000  0.00000
2078 583639.000  -15.765931462  -47.872182859  1030.3975   5  12   2.7955   3.1012   7.5593   0.4675  -1.9717   1.5531   0.00    0.0   -0.01527   -0.00429   -0.03481   0.00000  0.00000  0.00000  0.00000  0.00000  0.00000
2078 583640.000  -15.765930345  -47.872179944  1030.3528   5  12   2.7956   3.1011   7.5583   0.4676  -1.9707   1.5529   0.00    0.0   -0.01475   -0.02513   -0.00187   0.00000  0.00000  0.00000  0.00000  0.00000  0.00000
2078 583641.000  -15.765931672  -47.872180128  1030.1341   5  12   2.7956   3.1011   7.5573   0.4678  -1.9698   1.5527   0.00    0.0   -0.02011    0.00192   -0.04527   0.00000  0.00000  0.00000  0.00000  0.00000  0.00000
2078 583642.000  -15.765932254  -47.872179683  1030.2740   5  12   2.7957   3.1010   7.5563   0.4679  -1.9688   1.5524   0.00    0.0   -0.00457   -0.00664    0.00910   0.00000  0.00000  0.00000  0.00000  0.00000  0.00000
2078 583643.000  -15.765932390  -47.872178732  1030.3572   5  12   2.7957   3.1010   7.5552   0.4681  -1.9679   1.5522   0.00    0.0   -0.02665   -0.00182   -0.02253   0.00000  0.00000  0.00000  0.00000  0.00000  0.00000
2078 583644.000  -15.765931110  -47.872179194  1029.7530   5  12   2.7958   3.1009   7.5542   0.4682  -1.9670   1.5520   0.00    0.0    0.00115    0.01159    0.00725   0.00000  0.00000  0.00000  0.00000  0.00000  0.00000
2078 583645.000  -15.765930591  -47.872178536  1029.6080   5  12   2.7958   3.1009   7.5532   0.4684  -1.9660   1.5518   0.00    0.0   -0.00168   -0.01337   -0.07320   0.00000  0.00000  0.00000  0.00000  0.00000  0.00000
2078 583646.000  -15.765929097  -47.872175736  1030.5025   5  12   2.7959   3.1008   7.5521   0.4685  -1.9651   1.5516   0.00    0.0   -0.02821   -0.00837    0.01073   0.00000  0.00000  0.00000  0.00000  0.00000  0.00000
2078 583647.000  -15.765929209  -47.872175974  1030.8888   5  12   2.7959   3.1007   7.5511   0.4687  -1.9642   1.5514   0.00    0.0    0.00328    0.01054   -0.01582   0.00000  0.00000  0.00000  0.00000  0.00000  0.00000
2078 583648.000  -15.765929364  -47.872177528  1031.0444   5  12   2.7960   3.1007   7.5501   0.4688  -1.9632   1.5512   0.00    0.0   -0.00533    0.01173   -0.03636   0.00000  0.00000  0.00000  0.00000  0.00000  0.00000
2078 583649.000  -15.765929550  -47.872177925  1030.7897   5  12   2.7960   3.1006   7.5491   0.4690  -1.9623   1.5510   0.00    0.0    0.00167   -0.00685   -0.02836   0.00000  0.00000  0.00000  0.00000  0.00000  0.00000
2078 583650.000  -15.765928340  -47.872176405  1031.2700   5  12   2.7961   3.1006   7.5480   0.4691  -1.9613   1.5508   0.00    0.0   -0.03115   -0.01655   -0.02415   0.00000  0.00000  0.00000  0.00000  0.00000  0.00000
2078 583651.000  -15.765927294  -47.872178274  1030.8677   5  12   2.7961   3.1005   7.5470   0.4693  -1.9604   1.5506   0.00    0.0   -0.01108   -0.01375    0.07973   0.00000  0.00000  0.00000  0.00000  0.00000  0.00000
2078 583652.000  -15.765927729  -47.872177644  1030.7937   5  12   2.7962   3.1005   7.5460   0.4694  -1.9594   1.5504   0.00    0.0   -0.01021   -0.02096    0.01745   0.00000  0.00000  0.00000  0.00000  0.00000  0.00000
2078 583653.000  -15.765926753  -47.872176948  1030.9412   5  12   2.7963   3.1004   7.5449   0.4696  -1.9585   1.5502   0.00    0.0   -0.01132   -0.02261    0.01364   0.00000  0.00000  0.00000  0.00000  0.00000  0.00000
2078 583654.000  -15.765926236  -47.872174017  1031.1357   5  12   2.7963   3.1004   7.5439   0.4697  -1.9576   1.5500   0.00    0.0    0.00682   -0.00347    0.01456   0.00000  0.00000  0.00000  0.00000  0.00000  0.00000
2078 583655.000  -15.765928655  -47.872175316  1030.9813   5  12   2.7964   3.1003   7.5429   0.4699  -1.9566   1.5498   0.00    0.0   -0.02036   -0.02207   -0.01742   0.00000  0.00000  0.00000  0.00000  0.00000  0.00000
2078 583656.000  -15.765927390  -47.872173547  1030.4104   5  12   2.7964   3.1003   7.5419   0.4700  -1.9557   1.5495   0.00    0.0    0.01669   -0.02224    0.01018   0.00000  0.00000  0.00000  0.00000  0.00000  0.00000
2078 583657.000  -15.765928064  -47.872172836  1030.6955   5  12   2.7965   3.1002   7.5408   0.4702  -1.9547   1.5493   0.00    0.0   -0.01427   -0.02999    0.00273   0.00000  0.00000  0.00000  0.00000  0.00000  0.00000
2078 583658.000  -15.765927726  -47.872173228  1030.6518   5  12   2.7965   3.1002   7.5398   0.4703  -1.9538   1.5491   0.00    0.0    0.00784    0.01545   -0.06014   0.00000  0.00000  0.00000  0.00000  0.00000  0.00000
2078 583659.000  -15.765928273  -47.872173579  1030.1616   5  12   2.7966   3.1001   7.5388   0.4705  -1.9529   1.5489   0.00    0.0   -0.01108    0.00142    0.00862   0.00000  0.00000  0.00000  0.00000  0.00000  0.00000
2078 583660.000  -15.765928726  -47.872171741  1030.2140   5  12   2.7966   3.1000   7.5378   0.4706  -1.9519   1.5487   0.00    0.0   -0.02038   -0.00030    0.01023   0.00000  0.00000  0.00000  0.00000  0.00000  0.00000
2078 583661.000  -15.765929348  -47.872172283  1030.1183   5  12   2.7967   3.1000   7.5367   0.4708  -1.9510   1.5485   0.00    0.0    0.03092    0.00341    0.02549   0.00000  0.00000  0.00000  0.00000  0.00000  0.00000
2078 583662.000  -15.765932082  -47.872173098  1030.2274   5  12   2.7967   3.0999   7.5357   0.4709  -1.9500   1.5483   0.00    0.0   -0.01573   -0.02336    0.00525   0.00000  0.00000  0.00000  0.00000  0.00000  0.00000
2078 583663.000  -15.765932973  -47.872174794  1030.2956   5  12   2.7968   3.0999   7.5347   0.4711  -1.9491   1.5481   0.00    0.0    0.00375    0.00298   -0.01515   0.00000  0.00000  0.00000  0.00000  0.00000  0.00000
2078 583664.000  -15.765932864  -47.872176009  1030.6416   5  12   2.7968   3.0998   7.5337   0.4712  -1.9481   1.5479   0.00    0.0    0.02484   -0.01072    0.01239   0.00000  0.00000  0.00000  0.00000  0.00000  0.00000
2078 583665.000  -15.765931705  -47.872174079  1030.8943   5  12   2.7969   3.0998   7.5327   0.4714  -1.9472   1.5477   0.00    0.0   -0.01630   -0.01546    0.02741   0.00000  0.00000  0.00000  0.00000  0.00000  0.00000
2078 583666.000  -15.765930839  -47.872172430  1031.6530   5  12   2.7969   3.0997   7.5316   0.4715  -1.9463   1.5475   0.00    0.0   -0.00330    0.01727   -0.03183   0.00000  0.00000  0.00000  0.00000  0.00000  0.00000
2078 583667.000  -15.765930231  -47.872173403  1031.8560   5  12   2.7970   3.0997   7.5306   0.4717  -1.9453   1.5473   0.00    0.0    0.01805    0.01323   -0.05604   0.00000  0.00000  0.00000  0.00000  0.00000  0.00000
2078 583668.000  -15.765928583  -47.872174823  1032.3189   5  12   2.7970   3.0996   7.5296   0.4718  -1.9444   1.5470   0.00    0.0    0.01082    0.00276    0.04727   0.00000  0.00000  0.00000  0.00000  0.00000  0.00000
2078 583669.000  -15.765928120  -47.872174802  1032.9040   5  12   2.7971   3.0996   7.5286   0.4720  -1.9434   1.5468   0.00    0.0   -0.01284   -0.02373   -0.05090   0.00000  0.00000  0.00000  0.00000  0.00000  0.00000
2078 583670.000  -15.765928395  -47.872173593  1033.2891   5  12   2.7971   3.0995   7.5275   0.4721  -1.9425   1.5466   0.00    0.0    0.01508    0.01335   -0.02312   0.00000  0.00000  0.00000  0.00000  0.00000  0.00000
2078 583671.000  -15.765929063  -47.872174595  1033.7647   5  12   2.7972   3.0995   7.5265   0.4722  -1.9415   1.5464   0.00    0.0   -0.03245   -0.00023    0.00469   0.00000  0.00000  0.00000  0.00000  0.00000  0.00000
2078 583672.000  -15.765929060  -47.872176527  1033.5858   5  12   2.7973   3.0994   7.5255   0.4724  -1.9406   1.5462   0.00    0.0   -0.03873    0.00236    0.00123   0.00000  0.00000  0.00000  0.00000  0.00000  0.00000
2078 583673.000  -15.765930411  -47.872177284  1033.9785   5  12   2.7973   3.0994   7.5245   0.4725  -1.9396   1.5460   0.00    0.0   -0.00281   -0.00836   -0.03777   0.00000  0.00000  0.00000  0.00000  0.00000  0.00000
2078 583674.000  -15.765931089  -47.872178072  1033.9310   5  12   2.7974   3.0993   7.5235   0.4727  -1.9387   1.5458   0.00    0.0    0.00520   -0.00004   -0.02262   0.00000  0.00000  0.00000  0.00000  0.00000  0.00000
2078 583675.000  -15.765931762  -47.872180615  1034.1127   5  12   2.7974   3.0993   7.5224   0.4728  -1.9377   1.5456   0.00    0.0    0.01059   -0.01718    0.05936   0.00000  0.00000  0.00000  0.00000  0.00000  0.00000
2078 583676.000  -15.765931706  -47.872180518  1033.8148   5  12   2.7975   3.0992   7.5214   0.4730  -1.9368   1.5454   0.00    0.0    0.00534   -0.01163   -0.02395   0.00000  0.00000  0.00000  0.00000  0.00000  0.00000
2078 583677.000  -15.765931499  -47.872181103  1033.5820   5  12   2.7975   3.0992   7.5204   0.4731  -1.9359   1.5452   0.00    0.0   -0.00341   -0.00374   -0.01543   0.00000  0.00000  0.00000  0.00000  0.00000  0.00000
2078 583678.000  -15.765929891  -47.872180948  1034.1830   5  12   2.7976   3.0991   7.5194   0.4733  -1.9349   1.5449   0.00    0.0    0.02246    0.00630    0.11166   0.00000  0.00000  0.00000  0.00000  0.00000  0.00000
2078 583679.000  -15.765930761  -47.872179707  1034.7829   5  12   2.7976   3.0990   7.5184   0.4734  -1.9340   1.5447   0.00    0.0    0.00005    0.01695    0.00089   0.00000  0.00000  0.00000  0.00000  0.00000  0.00000
2078 583680.000  -15.765930826  -47.872178531  1035.0168   5  12   2.7977   3.0990   7.5174   0.4736  -1.9330   1.5445   0.00    0.0    0.00383    0.01662   -0.06978   0.00000  0.00000  0.00000  0.00000  0.00000  0.00000
2078 583681.000  -15.765929097  -47.872178706  1035.2921   5  12   2.7977   3.0989   7.5163   0.4737  -1.9321   1.5443   0.00    0.0    0.00249   -0.01400    0.01422   0.00000  0.00000  0.00000  0.00000  0.00000  0.00000
2078 583682.000  -15.765929483  -47.872180076  1035.2875   5  12   2.7978   3.0989   7.5153   0.4739  -1.9311   1.5441   0.00    0.0   -0.01098    0.02186    0.02582   0.00000  0.00000  0.00000  0.00000  0.00000  0.00000
2078 583683.000  -15.765929660  -47.872180851  1035.0142   5  12   2.7978   3.0988   7.5143   0.4740  -1.9302   1.5439   0.00    0.0   -0.00198   -0.00612   -0.02863   0.00000  0.00000  0.00000  0.00000  0.00000  0.00000
2078 583684.000  -15.765928470  -47.872181353  1035.3300   5  12   2.7979   3.0988   7.5133   0.4742  -1.9292   1.5437   0.00    0.0   -0.01821    0.01150   -0.05972   0.00000  0.00000  0.00000  0.00000  0.00000  0.00000
2078 583685.000  -15.765927089  -47.872182089  1035.3300   5  12   2.7979   3.0987   7.5123   0.4743  -1.9283   1.5435   0.00    0.0   -0.01794   -0.00742   -0.01370   0.00000  0.00000  0.00000  0.00000  0.00000  0.00000
2078 583686.000  -15.765926251  -47.872182764  1035.9277   5  12   2.7980   3.0987   7.5113   0.4745  -1.9273   1.5432   0.00    0.0   -0.00475    0.00670    0.02236   0.00000  0.00000  0.00000  0.00000  0.00000  0.00000
2078 583687.000  -15.765927255  -47.872184222  1036.2479   5  12   2.7980   3.0986   7.5102   0.4746  -1.9264   1.5430   0.00    0.0   -0.00971   -0.01702    0.04758   0.00000  0.00000  0.00000  0.00000  0.00000  0.00000
2078 583688.000  -15.765926722  -47.872186240  1036.4451   5  12   2.7981   3.0986   7.5092   0.4748  -1.9254   1.5428   0.00    0.0   -0.00605   -0.02538    0.01998   0.00000  0.00000  0.00000  0.00000  0.00000  0.00000
2078 583689.000  -15.765925761  -47.872186462  1036.4981   5  12   2.7981   3.0985   7.5082   0.4749  -1.9245   1.5426   0.00    0.0   -0.02077    0.00255    0.00948   0.00000  0.00000  0.00000  0.00000  0.00000  0.00000
2078 583690.000  -15.765924923  -47.872185139  1036.4482   5  12   2.7982   3.0985   7.5072   0.4750  -1.9235   1.5424   0.00    0.0    0.00408   -0.00036    0.02795   0.00000  0.00000  0.00000  0.00000  0.00000  0.00000
2078 583691.000  -15.765924756  -47.872183899  1036.0235   5  12   2.7983   3.0984   7.5062   0.4752  -1.9226   1.5422   0.00    0.0    0.01227    0.02502    0.04078   0.00000  0.00000  0.00000  0.00000  0.00000  0.00000
2078 583692.000  -15.765926441  -47.872185264  1036.0543   5  12   2.7983   3.0984   7.5052   0.4753  -1.9216   1.5420   0.00    0.0    0.00719   -0.00867    0.00517   0.00000  0.00000  0.00000  0.00000  0.00000  0.00000
2078 583693.000  -15.765925092  -47.872188137  1036.5503   5  12   2.7984   3.0983   7.5042   0.4755  -1.9207   1.5418   0.00    0.0    0.00239    0.01422    0.01597   0.00000  0.00000  0.00000  0.00000  0.00000  0.00000
2078 583694.000  -15.765925875  -47.872189126  1036.3034   5  12   2.7984   3.0983   7.5031   0.4756  -1.9197   1.5415   0.00    0.0   -0.00374   -0.01974   -0.01238   0.00000  0.00000  0.00000  0.00000  0.00000  0.00000
2078 583695.000  -15.765926541  -47.872187890  1036.0309   5  12   2.7985   3.0982   7.5021   0.4758  -1.9188   1.5413   0.00    0.0    0.00303    0.00342   -0.03879   0.00000  0.00000  0.00000  0.00000  0.00000  0.00000
2078 583696.000  -15.765927930  -47.872188771  1035.8238   5  12   2.7985   3.0982   7.5011   0.4759  -1.9178   1.5411   0.00    0.0   -0.02719   -0.00853    0.00422   0.00000  0.00000  0.00000  0.00000  0.00000  0.00000
2078 583697.000  -15.765926959  -47.872187835  1035.6602   5  12   2.7986   3.0981   7.5001   0.4761  -1.9169   1.5409   0.00    0.0   -0.00057    0.00875    0.02369   0.00000  0.00000  0.00000  0.00000  0.00000  0.00000
2078 583698.000  -15.765927223  -47.872190635  1034.6477   5  12   2.7986   3.0981   7.4991   0.4762  -1.9159   1.5407   0.00    0.0    0.02197    0.00908   -0.00975   0.00000  0.00000  0.00000  0.00000  0.00000  0.00000
2078 583699.000  -15.765926581  -47.872191853  1033.8241   5  12   2.7987   3.0980   7.4981   0.4764  -1.9150   1.5405   0.00    0.0   -0.00389   -0.00246   -0.03736   0.00000  0.00000  0.00000  0.00000  0.00000  0.00000
2078 583700.000  -15.765927221  -47.872189935  1033.3416   5  12   2.7987   3.0980   7.4971   0.4765  -1.9140   1.5403   0.00    0.0   -0.01352    0.01503   -0.06561   0.00000  0.00000  0.00000  0.00000  0.00000  0.00000
2078 583701.000  -15.765929213  -47.872191982  1033.0785   5  12   2.7988   3.0979   7.4961   0.4767  -1.9131   1.5401   0.00    0.0    0.00539   -0.02248    0.09212   0.00000  0.00000  0.00000  0.00000  0.00000  0.00000
2078 583702.000  -15.765931196  -47.872191375  1032.8883   5  12   2.7988   3.0979   7.4951   0.4768  -1.9121   1.5398   0.00    0.0   -0.00783    0.00131   -0.01929   0.00000  0.00000  0.00000  0.00000  0.00000  0.00000
2078 583703.000  -15.765929261  -47.872189011  1032.6439   5  12   2.7989   3.0978   7.4940   0.4769  -1.9112   1.5396   0.00    0.0   -0.01833   -0.01316   -0.01137   0.00000  0.00000  0.00000  0.00000  0.00000  0.00000
2078 583704.000  -15.765930260  -47.872189212  1031.9313   5  12   2.7989   3.0978   7.4930   0.4771  -1.9102   1.5394   0.00    0.0    0.00864    0.01443   -0.05292   0.00000  0.00000  0.00000  0.00000  0.00000  0.00000
2078 583705.000  -15.765933417  -47.872191183  1031.7439   5  12   2.7990   3.0977   7.4920   0.4772  -1.9093   1.5392   0.00    0.0   -0.03157   -0.00780   -0.02450   0.00000  0.00000  0.00000  0.00000  0.00000  0.00000
2078 583706.000  -15.765934301  -47.872189950  1031.1266   5  12   2.7990   3.0977   7.4910   0.4774  -1.9083   1.5390   0.00    0.0    0.01319    0.02355   -0.03045   0.00000  0.00000  0.00000  0.00000  0.00000  0.00000
2078 583707.000  -15.765933581  -47.872189692  1031.2018   5  12   2.7991   3.0976   7.4900   0.4775  -1.9074   1.5388   0.00    0.0    0.02945    0.00683    0.00879   0.00000  0.00000  0.00000  0.00000  0.00000  0.00000
2078 583708.000  -15.765934882  -47.872189569  1031.5139   5  12   2.7991   3.0976   7.4890   0.4777  -1.9064   1.5386   0.00    0.0   -0.00553   -0.01946   -0.02635   0.00000  0.00000  0.00000  0.00000  0.00000  0.00000
2078 583709.000  -15.765937355  -47.872190786  1032.1015   5  12   2.7992   3.0975   7.4880   0.4778  -1.9055   1.5383   0.00    0.0    0.00777   -0.00719    0.01875   0.00000  0.00000  0.00000  0.00000  0.00000  0.00000
2078 583710.000  -15.765937507  -47.872189971  1032.5111   5  12   2.7993   3.0975   7.4870   0.4780  -1.9045   1.5381   0.00    0.0   -0.00962   -0.00433   -0.00374   0.00000  0.00000  0.00000  0.00000  0.00000  0.00000
2078 583711.000  -15.765938989  -47.872188726  1032.3845   5  12   2.7993   3.0974   7.4860   0.4781  -1.9036   1.5379   0.00    0.0   -0.00273   -0.00481   -0.02205   0.00000  0.00000  0.00000  0.00000  0.00000  0.00000
2078 583712.000  -15.765937635  -47.872190131  1032.6970   5  12   2.7994   3.0974   7.4850   0.4783  -1.9026   1.5377   0.00    0.0   -0.00628    0.01675   -0.03687   0.00000  0.00000  0.00000  0.00000  0.00000  0.00000
2078 583713.000  -15.765938335  -47.872191463  1032.9906   5  12   2.7994   3.0973   7.4840   0.4784  -1.9017   1.5375   0.00    0.0    0.00496    0.00804   -0.01751   0.00000  0.00000  0.00000  0.00000  0.00000  0.00000
2078 583714.000  -15.765938624  -47.872193822  1033.5419   5  12   2.7995   3.0973   7.4830   0.4785  -1.9007   1.5373   0.00    0.0   -0.00499    0.00205    0.02778   0.00000  0.00000  0.00000  0.00000  0.00000  0.00000
2078 583715.000  -15.765937493  -47.872194011  1033.9084   5  12   2.7995   3.0972   7.4820   0.4787  -1.8998   1.5370   0.00    0.0    0.01163    0.00257    0.02345   0.00000  0.00000  0.00000  0.00000  0.00000  0.00000
2078 583716.000  -15.765938546  -47.872192322  1034.1604   5  12   2.7996   3.0972   7.4809   0.4788  -1.8988   1.5368   0.00    0.0   -0.01219   -0.01872   -0.01705   0.00000  0.00000  0.00000  0.00000  0.00000  0.00000
2078 583717.000  -15.765937042  -47.872193087  1035.0247   5  12   2.7996   3.0971   7.4799   0.4790  -1.8979   1.5366   0.00    0.0   -0.00443    0.00636    0.02693   0.00000  0.00000  0.00000  0.00000  0.00000  0.00000
2078 583718.000  -15.765936390  -47.872192606  1035.3301   5  12   2.7997   3.0971   7.4789   0.4791  -1.8969   1.5364   0.00    0.0    0.00106    0.01563   -0.04511   0.00000  0.00000  0.00000  0.00000  0.00000  0.00000
2078 583719.000  -15.765936108  -47.872191081  1035.1953   5  12   2.7997   3.0970   7.4779   0.4793  -1.8960   1.5362   0.00    0.0    0.00209    0.00475   -0.03813   0.00000  0.00000  0.00000  0.00000  0.00000  0.00000
2078 583720.000  -15.765935384  -47.872190805  1035.3384   5  12   2.7998   3.0970   7.4769   0.4794  -1.8950   1.5360   0.00    0.0   -0.00645   -0.00169    0.06867   0.00000  0.00000  0.00000  0.00000  0.00000  0.00000
2078 583721.000  -15.765935114  -47.872190919  1035.2242   5  12   2.7998   3.0969   7.4759   0.4796  -1.8940   1.5357   0.00    0.0    0.00217   -0.03618   -0.00552   0.00000  0.00000  0.00000  0.00000  0.00000  0.00000
2078 583722.000  -15.765935492  -47.872190510  1035.4453   5  12   2.7999   3.0969   7.4749   0.4797  -1.8931   1.5355   0.00    0.0    0.00035    0.00092   -0.02453   0.00000  0.00000  0.00000  0.00000  0.00000  0.00000
2078 583723.000  -15.765936192  -47.872189635  1035.3352   5  12   2.7999   3.0969   7.4739   0.4798  -1.8921   1.5353   0.00    0.0    0.00268   -0.01635    0.04784   0.00000  0.00000  0.00000  0.00000  0.00000  0.00000
2078 583724.000  -15.765937736  -47.872190187  1035.2022   5  12   2.8000   3.0968   7.4729   0.4800  -1.8912   1.5351   0.00    0.0   -0.00306    0.00255   -0.01569   0.00000  0.00000  0.00000  0.00000  0.00000  0.00000
2078 583725.000  -15.765936557  -47.872186516  1035.4050   5  12   2.8000   3.0968   7.4719   0.4801  -1.8902   1.5349   0.00    0.0   -0.02790    0.00414   -0.05565   0.00000  0.00000  0.00000  0.00000  0.00000  0.00000
2078 583726.000  -15.765937247  -47.872185340  1035.7186   5  12   2.8001   3.0967   7.4709   0.4803  -1.8893   1.5347   0.00    0.0   -0.01911   -0.00364   -0.02493   0.00000  0.00000  0.00000  0.00000  0.00000  0.00000
2078 583727.000  -15.765938459  -47.872185381  1035.7354   5  12   2.8001   3.0967   7.4699   0.4804  -1.8883   1.5344   0.00    0.0    0.00005   -0.00406    0.00939   0.00000  0.00000  0.00000  0.00000  0.00000  0.00000
2078 583728.000  -15.765937672  -47.872184136  1035.8727   5  12   2.8002   3.0966   7.4689   0.4806  -1.8874   1.5342   0.00    0.0   -0.01250    0.01205    0.00861   0.00000  0.00000  0.00000  0.00000  0.00000  0.00000
2078 583729.000  -15.765938242  -47.872183645  1036.5725   5  12   2.8003   3.0966   7.4679   0.4807  -1.8864   1.5340   0.00    0.0    0.00117    0.00675    0.01777   0.00000  0.00000  0.00000  0.00000  0.00000  0.00000
2078 583730.000  -15.765938862  -47.872184379  1036.6683   5  12   2.8003   3.0965   7.4669   0.4808  -1.8854   1.5338   0.00    0.0    0.01499   -0.00553    0.04793   0.00000  0.00000  0.00000  0.00000  0.00000  0.00000
2078 583731.000  -15.765940269  -47.872184993  1036.7431   5  12   2.8004   3.0965   7.4659   0.4810  -1.8845   1.5336   0.00    0.0    0.00675    0.00487    0.03985   0.00000  0.00000  0.00000  0.00000  0.00000  0.00000
2078 583732.000  -15.765940898  -47.872184415  1036.8893   5  12   2.8004   3.0964   7.4649   0.4811  -1.8835   1.5333   0.00    0.0   -0.03690    0.00737   -0.01330   0.00000  0.00000  0.00000  0.00000  0.00000  0.00000
2078 583733.000  -15.765941024  -47.872183393  1036.8512   5  12   2.8005   3.0964   7.4639   0.4813  -1.8826   1.5331   0.00    0.0    0.01433    0.02403    0.03259   0.00000  0.00000  0.00000  0.00000  0.00000  0.00000
2078 583734.000  -15.765941042  -47.872183694  1037.0943   5  12   2.8005   3.0963   7.4629   0.4814  -1.8816   1.5329   0.00    0.0    0.00526   -0.01116    0.00288   0.00000  0.00000  0.00000  0.00000  0.00000  0.00000
2078 583735.000  -15.765940617  -47.872184686  1037.2753   5  12   2.8006   3.0963   7.4619   0.4816  -1.8807   1.5327   0.00    0.0    0.00641    0.00194   -0.03705   0.00000  0.00000  0.00000  0.00000  0.00000  0.00000
2078 583736.000  -15.765937324  -47.872185668  1037.1437   5  12   2.8006   3.0962   7.4609   0.4817  -1.8797   1.5325   0.00    0.0   -0.02535   -0.00744   -0.01594   0.00000  0.00000  0.00000  0.00000  0.00000  0.00000
2078 583737.000  -15.765935568  -47.872184969  1037.9873   5  12   2.8007   3.0962   7.4599   0.4819  -1.8787   1.5323   0.00    0.0   -0.01120    0.02374   -0.04175   0.00000  0.00000  0.00000  0.00000  0.00000  0.00000
2078 583738.000  -15.765935036  -47.872186027  1038.1530   5  12   2.8007   3.0961   7.4589   0.4820  -1.8778   1.5320   0.00    0.0   -0.01471    0.00743    0.03644   0.00000  0.00000  0.00000  0.00000  0.00000  0.00000
2078 583739.000  -15.765934253  -47.872188505  1038.1678   5  12   2.8008   3.0961   7.4579   0.4821  -1.8768   1.5318   0.00    0.0   -0.01960   -0.00129    0.00328   0.00000  0.00000  0.00000  0.00000  0.00000  0.00000
2078 583740.000  -15.765934606  -47.872187929  1038.1326   5  12   2.8008   3.0960   7.4569   0.4823  -1.8759   1.5316   0.00    0.0   -0.03706    0.00643   -0.09428   0.00000  0.00000  0.00000  0.00000  0.00000  0.00000
2078 583741.000  -15.765933343  -47.872186591  1038.2421   5  12   2.8009   3.0960   7.4559   0.4824  -1.8749   1.5314   0.00    0.0    0.00195    0.01673   -0.00683   0.00000  0.00000  0.00000  0.00000  0.00000  0.00000
2078 583742.000  -15.765932400  -47.872186856  1038.0852   5  12   2.8009   3.0959   7.4549   0.4826  -1.8740   1.5312   0.00    0.0   -0.00720    0.00623   -0.01999   0.00000  0.00000  0.00000  0.00000  0.00000  0.00000
2078 583743.000  -15.765930282  -47.872187674  1037.8989   5  12   2.8010   3.0959   7.4539   0.4827  -1.8730   1.5309   0.00    0.0    0.00206    0.00300    0.05324   0.00000  0.00000  0.00000  0.00000  0.00000  0.00000
2078 583744.000  -15.765927555  -47.872187251  1038.1124   5  12   2.8010   3.0959   7.4529   0.4829  -1.8720   1.5307   0.00    0.0   -0.02990   -0.03197    0.00404   0.00000  0.00000  0.00000  0.00000  0.00000  0.00000
2078 583745.000  -15.765924231  -47.872184260  1037.4592   5  12   2.8011   3.0958   7.4519   0.4830  -1.8711   1.5305   0.00    0.0   -0.01498    0.00107   -0.02575   0.00000  0.00000  0.00000  0.00000  0.00000  0.00000
2078 583746.000  -15.765921671  -47.872185688  1037.7552   5  12   2.8011   3.0958   7.4509   0.4831  -1.8701   1.5303   0.00    0.0   -0.00539   -0.00045    0.00166   0.00000  0.00000  0.00000  0.00000  0.00000  0.00000
2078 583747.000  -15.765920349  -47.872185186  1037.5679   5  12   2.8012   3.0957   7.4499   0.4833  -1.8692   1.5301   0.00    0.0   -0.00568    0.01328   -0.04964   0.00000  0.00000  0.00000  0.00000  0.00000  0.00000
2078 583748.000  -15.765920972  -47.872186368  1037.5423   5  12   2.8013   3.0957   7.4489   0.4834  -1.8682   1.5298   0.00    0.0   -0.03452   -0.02334   -0.02458   0.00000  0.00000  0.00000  0.00000  0.00000  0.00000
2078 583749.000  -15.765922274  -47.872187088  1037.3229   5  12   2.8013   3.0956   7.4480   0.4836  -1.8672   1.5296   0.00    0.0   -0.00327   -0.00097    0.01759   0.00000  0.00000  0.00000  0.00000  0.00000  0.00000
2078 583750.000  -15.765920447  -47.872186665  1037.1390   5  12   2.8014   3.0956   7.4470   0.4837  -1.8663   1.5294   0.00    0.0    0.00392    0.00283   -0.01598   0.00000  0.00000  0.00000  0.00000  0.00000  0.00000
2078 583751.000  -15.765921656  -47.872187000  1037.0544   5  12   2.8014   3.0955   7.4460   0.4839  -1.8653   1.5292   0.00    0.0   -0.00354   -0.01475   -0.02193   0.00000  0.00000  0.00000  0.00000  0.00000  0.00000
2078 583752.000  -15.765920968  -47.872185104  1037.3605   5  12   2.8015   3.0955   7.4450   0.4840  -1.8644   1.5289   0.00    0.0    0.00331   -0.00431   -0.00059   0.00000  0.00000  0.00000  0.00000  0.00000  0.00000
2078 583753.000  -15.765918803  -47.872183378  1037.3819   5  12   2.8015   3.0954   7.4440   0.4841  -1.8634   1.5287   0.00    0.0   -0.01295   -0.02145    0.01617   0.00000  0.00000  0.00000  0.00000  0.00000  0.00000
2078 583754.000  -15.765919915  -47.872183645  1037.0537   5  12   2.8016   3.0954   7.4430   0.4843  -1.8624   1.5285   0.00    0.0    0.01674   -0.00365    0.03201   0.00000  0.00000  0.00000  0.00000  0.00000  0.00000
2078 583755.000  -15.765919942  -47.872182088  1036.9919   5  12   2.8016   3.0954   7.4420   0.4844  -1.8615   1.5283   0.00    0.0    0.00479   -0.01853    0.01798   0.00000  0.00000  0.00000  0.00000  0.00000  0.00000
2078 583756.000  -15.765920793  -47.872182767  1037.4662   5  12   2.8017   3.0953   7.4410   0.4846  -1.8605   1.5281   0.00    0.0    0.01576    0.00651    0.04225   0.00000  0.00000  0.00000  0.00000  0.00000  0.00000
2078 583757.000  -15.765921152  -47.872182062  1037.6949   5  12   2.8017   3.0953   7.4400   0.4847  -1.8595   1.5278   0.00    0.0   -0.00674    0.00618    0.00668   0.00000  0.00000  0.00000  0.00000  0.00000  0.00000
2078 583758.000  -15.765921759  -47.872180093  1037.7623   5  12   2.8018   3.0952   7.4390   0.4848  -1.8586   1.5276   0.00    0.0    0.02400   -0.00223   -0.01223   0.00000  0.00000  0.00000  0.00000  0.00000  0.00000
2078 583759.000  -15.765920518  -47.872180594  1037.4830   5  12   2.8018   3.0952   7.4380   0.4850  -1.8576   1.5274   0.00    0.0   -0.01195    0.00441   -0.02775   0.00000  0.00000  0.00000  0.00000  0.00000  0.00000
2078 583760.000  -15.765920609  -47.872179995  1037.0884   5  12   2.8019   3.0951   7.4370   0.4851  -1.8567   1.5272   0.00    0.0   -0.03091   -0.00175   -0.08342   0.00000  0.00000  0.00000  0.00000  0.00000  0.00000
2078 583761.000  -15.765920648  -47.872180469  1036.8318   5  12   2.8019   3.0951   7.4361   0.4853  -1.8557   1.5270   0.00    0.0    0.00672    0.01023   -0.02484   0.00000  0.00000  0.00000  0.00000  0.00000  0.00000
2078 583762.000  -15.765921668  -47.872179677  1036.5781   5  12   2.8020   3.0950   7.4351   0.4854  -1.8547   1.5267   0.00    0.0    0.02687   -0.00031    0.04439   0.00000  0.00000  0.00000  0.00000  0.00000  0.00000
2078 583763.000  -15.765921255  -47.872180584  1036.0908   5  12   2.8020   3.0950   7.4341   0.4855  -1.8538   1.5265   0.00    0.0    0.00737   -0.02302    0.01701   0.00000  0.00000  0.00000  0.00000  0.00000  0.00000
2078 583764.000  -15.765922368  -47.872180295  1035.7075   5  12   2.8021   3.0949   7.4331   0.4857  -1.8528   1.5263   0.00    0.0    0.01443    0.00699    0.00568   0.00000  0.00000  0.00000  0.00000  0.00000  0.00000
2078 583765.000  -15.765924860  -47.872180724  1035.5716   5  12   2.8021   3.0949   7.4321   0.4858  -1.8518   1.5261   0.00    0.0    0.01470   -0.01441    0.03579   0.00000  0.00000  0.00000  0.00000  0.00000  0.00000
2078 583766.000  -15.765925714  -47.872181266  1035.3345   5  12   2.8022   3.0949   7.4311   0.4860  -1.8509   1.5258   0.00    0.0   -0.02397   -0.02652    0.01977   0.00000  0.00000  0.00000  0.00000  0.00000  0.00000
2078 583767.000  -15.765926935  -47.872183031  1034.6255   5  12   2.8023   3.0948   7.4301   0.4861  -1.8499   1.5256   0.00    0.0   -0.02228    0.01067    0.07522   0.00000  0.00000  0.00000  0.00000  0.00000  0.00000
2078 583768.000  -15.765927773  -47.872182981  1034.5138   5  12   2.8023   3.0948   7.4291   0.4863  -1.8489   1.5254   0.00    0.0    0.00194    0.01557   -0.03603   0.00000  0.00000  0.00000  0.00000  0.00000  0.00000
2078 583769.000  -15.765928368  -47.872182132  1033.9634   5  12   2.8024   3.0947   7.4281   0.4864  -1.8480   1.5252   0.00    0.0    0.00960    0.00251    0.00085   0.00000  0.00000  0.00000  0.00000  0.00000  0.00000
2078 583770.000  -15.765926976  -47.872182523  1034.2213   5  12   2.8024   3.0947   7.4272   0.4865  -1.8470   1.5249   0.00    0.0   -0.01139    0.00917   -0.00707   0.00000  0.00000  0.00000  0.00000  0.00000  0.00000
2078 583771.000  -15.765926922  -47.872182477  1034.6480   5  12   2.8025   3.0946   7.4262   0.4867  -1.8461   1.5247   0.00    0.0    0.00449   -0.00870   -0.04932   0.00000  0.00000  0.00000  0.00000  0.00000  0.00000
2078 583772.000  -15.765923420  -47.872180008  1034.7072   5  12   2.8025   3.0946   7.4252   0.4868  -1.8451   1.5245   0.00    0.0    0.02758    0.02052   -0.00670   0.00000  0.00000  0.00000  0.00000  0.00000  0.00000
2078 583773.000  -15.765924884  -47.872181056  1034.8821   5  12   2.8026   3.0945   7.4242   0.4870  -1.8441   1.5243   0.00    0.0    0.01186    0.01072   -0.02036   0.00000  0.00000  0.00000  0.00000  0.00000  0.00000
2078 583774.000  -15.765926072  -47.872177945  1035.3905   5  12   2.8026   3.0945   7.4232   0.4871  -1.8432   1.5240   0.00    0.0   -0.01119    0.03197   -0.03958   0.00000  0.00000  0.00000  0.00000  0.00000  0.00000
2078 583775.000  -15.765940236  -47.872179254  1036.7824   5  12   2.8027   3.0945   7.4222   0.4872  -1.8422   1.5238   0.00    0.0   -1.43401   -0.29558    0.91173   0.00000  0.00000  0.00000  0.00000  0.00000  0.00000
2078 583776.000  -15.765916232  -47.872180237  1035.1802   5  12   2.8027   3.0944   7.4212   0.4874  -1.8412   1.5236   0.00    0.0    0.04907    0.05023    0.00959   0.00000  0.00000  0.00000  0.00000  0.00000  0.00000
2078 583777.000  -15.765919331  -47.872179245  1036.4491   5  12   2.8028   3.0944   7.4203   0.4875  -1.8403   1.5234   0.00    0.0   -0.01699    0.00135    0.01931   0.00000  0.00000  0.00000  0.00000  0.00000  0.00000
2078 583778.000  -15.765915033  -47.872179975  1035.6761   5  12   2.8028   3.0943   7.4193   0.4877  -1.8393   1.5231   0.00    0.0    0.01058   -0.01989    0.09220   0.00000  0.00000  0.00000  0.00000  0.00000  0.00000
2078 583779.000  -15.765914128  -47.872180609  1035.9100   5  12   2.8029   3.0943   7.4183   0.4878  -1.8383   1.5229   0.00    0.0    0.00214    0.01092   -0.04070   0.00000  0.00000  0.00000  0.00000  0.00000  0.00000
2078 583780.000  -15.765918239  -47.872181280  1036.0879   5  12   2.8029   3.0942   7.4173   0.4879  -1.8374   1.5227   0.00    0.0    0.00073    0.00476   -0.01768   0.00000  0.00000  0.00000  0.00000  0.00000  0.00000
2078 583781.000  -15.765922543  -47.872181232  1036.6673   5  12   2.8030   3.0942   7.4163   0.4881  -1.8364   1.5225   0.00    0.0   -0.00434   -0.02556   -0.05161   0.00000  0.00000  0.00000  0.00000  0.00000  0.00000
2078 583782.000  -15.765924180  -47.872181223  1037.1672   5  12   2.8030   3.0941   7.4153   0.4882  -1.8354   1.5222   0.00    0.0    0.03175   -0.05513   -0.07482   0.00000  0.00000  0.00000  0.00000  0.00000  0.00000
2078 583783.000  -15.765923580  -47.872183054  1036.9807   5  12   2.8031   3.0941   7.4144   0.4884  -1.8345   1.5220   0.00    0.0   -0.02580    0.01593   -0.06036   0.00000  0.00000  0.00000  0.00000  0.00000  0.00000
2078 583784.000  -15.765922631  -47.872186026  1036.9197   5  12   2.8031   3.0941   7.4134   0.4885  -1.8335   1.5218   0.00    0.0    0.00770   -0.01055    0.01335   0.00000  0.00000  0.00000  0.00000  0.00000  0.00000
2078 583785.000  -15.765921503  -47.872187240  1037.1927   5  12   2.8032   3.0940   7.4124   0.4886  -1.8325   1.5216   0.00    0.0   -0.01058   -0.05202   -0.13084   0.00000  0.00000  0.00000  0.00000  0.00000  0.00000
2078 583786.000  -15.765922680  -47.872185847  1036.5510   5  12   2.8033   3.0940   7.4114   0.4888  -1.8316   1.5213   0.00    0.0   -0.01554   -0.02631   -0.03082   0.00000  0.00000  0.00000  0.00000  0.00000  0.00000
2078 583787.000  -15.765921705  -47.872184287  1036.5060   5  12   2.8033   3.0939   7.4104   0.4889  -1.8306   1.5211   0.00    0.0    0.00046   -0.01069    0.00061   0.00000  0.00000  0.00000  0.00000  0.00000  0.00000
