$GNZDA,181930.598,09,11,2019,00,00*4D
$GPTXT,01,01,01,ANTENNA OK*35
$GNGGA,181931.596,1546.1396,S,04752.2438,W,6,05,1.9,2.7,M,0.0,M,,*79
$GNGLL,1546.1396,S,04752.2438,W,181931.596,A,E*47
$GPGSA,A,3,05,21,12,25,24,,,,,,,,4.8,1.9,4.4*32
$BDGSA,A,3,,,,,,,,,,,,,4.8,1.9,4.4*27
$GPGSV,3,1,09,02,12,143,,05,37,104,19,12,56,083,28,21,31,300,26*7E
$GPGSV,3,2,09,24,25,360,25,25,60,186,25,29,,,21,31,11,229,*48
$GPGSV,3,3,09,33,,,25*77
$BDGSV,1,1,00*68
$GNRMC,181931.596,A,1546.1396,S,04752.2438,W,1.99,92.51,091119,,,E*4F
$GNVTG,92.51,T,,M,1.99,N,3.69,K,E*15
$GNZDA,181931.596,09,11,2019,00,00*42
$GPTXT,01,01,01,ANTENNA OK*35
$GNGGA,181933.000,1546.1396,S,04752.2438,W,6,05,1.9,2.7,M,0.0,M,,*71
$GNGLL,1546.1396,S,04752.2438,W,181933.000,A,E*4F
$GPGSA,A,3,05,21,12,25,24,,,,,,,,4.8,1.9,4.4*32
$BDGSA,A,3,,,,,,,,,,,,,4.8,1.9,4.4*27
$GPGSV,3,1,09,02,12,143,,05,37,104,19,12,56,083,20,21,31,300,26*76
$GPGSV,3,2,09,24,25,360,18,25,60,186,25,29,,,21,31,11,229,*46
$GPGSV,3,3,09,33,,,23*71
$BDGSV,1,1,00*68
$GNRMC,181933.000,A,1546.1396,S,04752.2438,W,1.99,92.51,091119,,,E*47
$GNVTG,92.51,T,,M,1.99,N,3.69,K,E*15
$GNZDA,181933.000,09,11,2019,00,00*4A
$GPTXT,01,01,01,ANTENNA OK*35
$GNGGA,181934.000,1546.1343,S,04752.2462,W,6,05,1.9,4.6,M,0.0,M,,*76
$GNGLL,1546.1343,S,04752.2462,W,181934.000,A,E*4F
$GPGSA,A,3,05,21,12,25,24,,,,,,,,4.8,1.9,4.4*32
$BDGSA,A,3,,,,,,,,,,,,,4.8,1.9,4.4*27
$GPGSV,2,1,08,02,12,143,,05,37,104,15,12,56,083,20,21,31,300,20*7C
$GPGSV,2,2,08,24,25,360,18,25,60,186,22,29,,,21,31,11,229,*41
$BDGSV,1,1,00*68
$GNRMC,181934.000,A,1546.1343,S,04752.2462,W,2.08,92.11,091119,,,E*48
$GNVTG,92.11,T,,M,2.08,N,3.85,K,E*18
$GNZDA,181934.000,09,11,2019,00,00*4D
$GPTXT,01,01,01,ANTENNA OK*35
$GNGGA,181935.000,1546.1338,S,04752.2447,W,1,05,1.9,4.3,M,0.0,M,,*7E
$GNGLL,1546.1338,S,04752.2447,W,181935.000,A,A*41
$GPGSA,A,3,05,21,12,25,24,,,,,,,,4.8,1.9,4.4*32
$BDGSA,A,3,,,,,,,,,,,,,4.8,1.9,4.4*27
$GPGSV,2,1,08,02,12,143,,05,37,104,15,12,56,083,20,21,31,300,20*7C
$GPGSV,2,2,08,24,25,360,18,25,60,186,22,29,,,13,31,11,229,*40
$BDGSV,1,1,00*68
$GNRMC,181935.000,A,1546.1338,S,04752.2447,W,2.27,91.43,091119,,,A*4F
$GNVTG,91.43,T,,M,2.27,N,4.20,K,A*1D
$GNZDA,181935.000,09,11,2019,00,00*4C
$GPTXT,01,01,01,ANTENNA OK*35
$GNGGA,181936.000,1546.1307,S,04752.2417,W,1,05,1.9,4.3,M,0.0,M,,*74
$GNGLL,1546.1307,S,04752.2417,W,181936.000,A,A*4B
$GPGSA,A,3,05,21,12,25,24,,,,,,,,4.8,1.9,4.4*32
$BDGSA,A,3,,,,,,,,,,,,,4.8,1.9,4.4*27
$GPGSV,2,1,08,02,12,143,,05,37,104,15,12,56,083,20,21,31,300,20*7C
$GPGSV,2,2,08,24,25,360,18,25,60,186,22,29,,,13,31,11,229,*40
$BDGSV,1,1,00*68
$GNRMC,181936.000,A,1546.1307,S,04752.2417,W,2.62,89.15,091119,,,A*4E
$GNVTG,89.15,T,,M,2.62,N,4.84,K,A*18
$GNZDA,181936.000,09,11,2019,00,00*4F
$GPTXT,01,01,01,ANTENNA OK*35
$GNGGA,181937.000,1546.1269,S,04752.2382,W,1,05,1.9,4.3,M,0.0,M,,*77
$GNGLL,1546.1269,S,04752.2382,W,181937.000,A,A*48
$GPGSA,A,3,05,21,12,25,24,,,,,,,,4.8,1.9,4.4*32
$BDGSA,A,3,,,,,,,,,,,,,4.8,1.9,4.4*27
$GPGSV,2,1,08,02,12,143,,05,37,104,15,12,56,083,20,21,31,300,20*7C
$GPGSV,2,2,08,24,25,360,18,25,60,186,22,29,,,13,31,11,229,*40
$BDGSV,1,1,00*68
$GNRMC,181937.000,A,1546.1269,S,04752.2382,W,2.92,86.50,091119,,,A*4C
$GNVTG,86.50,T,,M,2.92,N,5.41,K,A*11
$GNZDA,181937.000,09,11,2019,00,00*4E
$GPTXT,01,01,01,ANTENNA OK*35
$GNGGA,181938.000,1546.1241,S,04752.2348,W,1,05,1.9,4.3,M,0.0,M,,*74
$GNGLL,1546.1241,S,04752.2348,W,181938.000,A,A*4B
$GPGSA,A,3,05,21,12,25,24,,,,,,,,4.8,1.9,4.4*32
$BDGSA,A,3,,,,,,,,,,,,,4.8,1.9,4.4*27
$GPGSV,2,1,08,02,12,143,,05,37,104,15,12,56,083,20,21,31,300,20*7C
$GPGSV,2,2,08,24,25,360,18,25,60,186,22,29,,,13,31,11,229,*40
$BDGSV,1,1,00*68
$GNRMC,181938.000,A,1546.1241,S,04752.2348,W,3.24,84.31,091119,,,A*46
$GNVTG,84.31,T,,M,3.24,N,6.00,K,A*1E
$GNZDA,181938.000,09,11,2019,00,00*41
$GPTXT,01,01,01,ANTENNA OK*35
$GNGGA,181939.000,1546.1220,S,04752.2305,W,1,05,1.9,4.3,M,0.0,M,,*7B
$GNGLL,1546.1220,S,04752.2305,W,181939.000,A,A*44
$GPGSA,A,3,05,21,12,25,24,,,,,,,,4.8,1.9,4.4*32
$BDGSA,A,3,,,,,,,,,,,,,4.8,1.9,4.4*27
$GPGSV,3,1,09,02,12,143,,05,37,104,15,12,56,083,29,21,31,300,20*75
$GPGSV,3,2,09,24,25,360,18,25,60,186,18,29,,,13,31,11,229,*49
$GPGSV,3,3,09,33,,,19*78
$BDGSV,1,1,00*68
$GNRMC,181939.000,A,1546.1220,S,04752.2305,W,3.62,83.01,091119,,,A*4F
$GNVTG,83.01,T,,M,3.62,N,6.71,K,A*1E
$GNZDA,181939.000,09,11,2019,00,00*40
$GPTXT,01,01,01,ANTENNA OK*35
$GNGGA,181940.000,1546.1204,S,04752.2264,W,1,05,1.9,4.3,M,0.0,M,,*75
$GNGLL,1546.1204,S,04752.2264,W,181940.000,A,A*4A
$GPGSA,A,3,05,21,12,25,24,,,,,,,,4.8,1.9,4.4*32
$BDGSA,A,3,,,,,,,,,,,,,4.8,1.9,4.4*27
$GPGSV,3,1,09,02,12,143,,05,37,104,15,12,56,083,29,21,31,300,20*75
$GPGSV,3,2,09,24,25,360,18,25,60,186,18,29,,,13,31,11,229,*49
$GPGSV,3,3,09,33,,,22*70
$BDGSV,1,1,00*68
$GNRMC,181940.000,A,1546.1204,S,04752.2264,W,3.96,82.43,091119,,,A*4D
$GNVTG,82.43,T,,M,3.96,N,7.34,K,A*12
$GNZDA,181940.000,09,11,2019,00,00*4E
$GPTXT,01,01,01,ANTENNA OK*35
$GNGGA,181941.000,1546.1180,S,04752.2225,W,1,05,1.9,4.3,M,0.0,M,,*7E
$GNGLL,1546.1180,S,04752.2225,W,181941.000,A,A*41
$GPGSA,A,3,05,21,12,25,24,,,,,,,,4.8,1.9,4.4*32
$BDGSA,A,3,,,,,,,,,,,,,4.8,1.9,4.4*27
$GPGSV,3,1,09,02,12,143,,05,37,104,15,12,56,083,29,21,31,300,22*77
$GPGSV,3,2,09,24,25,360,20,25,60,186,22,29,,,17,31,11,229,*4F
$GPGSV,3,3,09,33,,,22*70
$BDGSV,1,1,00*68
$GNRMC,181941.000,A,1546.1180,S,04752.2225,W,4.31,82.14,091119,,,A*4E
$GNVTG,82.14,T,,M,4.31,N,7.98,K,A*1C
$GNZDA,181941.000,09,11,2019,00,00*4F
$GPTXT,01,01,01,ANTENNA OK*35
$GNGGA,181942.000,1546.1171,S,04752.2168,W,1,05,1.9,4.3,M,0.0,M,,*79
$GNGLL,1546.1171,S,04752.2168,W,181942.000,A,A*46
$GPGSA,A,3,05,21,12,25,24,,,,,,,,4.8,1.9,4.4*32
$BDGSA,A,3,,,,,,,,,,,,,4.8,1.9,4.4*27
$GPGSV,3,1,09,02,12,143,,05,37,104,15,12,56,083,27,21,31,300,22*79
$GPGSV,3,2,09,24,25,360,20,25,60,186,22,29,,,17,31,11,229,*4F
$GPGSV,3,3,09,33,,,22*70
$BDGSV,1,1,00*68
$GNRMC,181942.000,A,1546.1171,S,04752.2168,W,4.58,81.06,091119,,,A*46
$GNVTG,81.06,T,,M,4.58,N,8.47,K,A*1E
$GNZDA,181942.000,09,11,2019,00,00*4C
$GPTXT,01,01,01,ANTENNA OK*35
$GNGGA,181943.000,1546.1184,S,04752.2120,W,1,05,1.9,4.4,M,0.0,M,,*79
$GNGLL,1546.1184,S,04752.2120,W,181943.000,A,A*41
$GPGSA,A,3,05,21,12,25,24,,,,,,,,4.8,1.9,4.4*32
$BDGSA,A,3,,,,,,,,,,,,,4.8,1.9,4.4*27
$GPGSV,3,1,09,02,12,143,,05,37,104,15,12,56,083,27,21,31,300,22*79
$GPGSV,3,2,09,24,25,360,20,25,60,186,22,29,,,17,31,11,229,*4F
$GPGSV,3,3,09,33,,,22*70
$BDGSV,1,1,00*68
$GNRMC,181943.000,A,1546.1184,S,04752.2120,W,4.85,79.57,091119,,,A*42
$GNVTG,79.57,T,,M,4.85,N,8.98,K,A*1F
$GNZDA,181943.000,09,11,2019,00,00*4D
$GPTXT,01,01,01,ANTENNA OK*35
$GNGGA,181944.000,1546.1212,S,04752.2079,W,1,05,1.9,4.4,M,0.0,M,,*7F
$GNGLL,1546.1212,S,04752.2079,W,181944.000,A,A*47
$GPGSA,A,3,05,21,12,25,24,,,,,,,,4.8,1.9,4.4*32
$BDGSA,A,3,,,,,,,,,,,,,4.8,1.9,4.4*27
$GPGSV,3,1,09,02,12,143,,05,37,104,15,12,56,083,27,21,31,300,22*79
$GPGSV,3,2,09,24,25,360,20,25,60,186,22,29,,,17,31,11,229,*4F
$GPGSV,3,3,09,33,,,22*70
$BDGSV,1,1,00*68
$GNRMC,181944.000,A,1546.1212,S,04752.2079,W,5.13,77.91,091119,,,A*4E
$GNVTG,77.91,T,,M,5.13,N,9.50,K,A*10
$GNZDA,181944.000,09,11,2019,00,00*4A
$GPTXT,01,01,01,ANTENNA OK*35
$GNGGA,181945.000,1546.1201,S,04752.2028,W,1,05,1.9,4.4,M,0.0,M,,*78
$GNGLL,1546.1201,S,04752.2028,W,181945.000,A,A*40
$GPGSA,A,3,05,21,12,25,24,,,,,,,,4.8,1.9,4.4*32
$BDGSA,A,3,,,,,,,,,,,,,4.8,1.9,4.4*27
$GPGSV,3,1,09,02,12,143,,05,37,104,15,12,56,083,27,21,31,300,24*7F
$GPGSV,3,2,09,24,25,360,20,25,60,186,22,29,,,17,31,11,229,*4F
$GPGSV,3,3,09,33,,,22*70
$BDGSV,1,1,00*68
$GNRMC,181945.000,A,1546.1201,S,04752.2028,W,5.42,76.24,091119,,,A*42
$GNVTG,76.24,T,,M,5.42,N,10.04,K,A*22
$GNZDA,181945.000,09,11,2019,00,00*4B
$GPTXT,01,01,01,ANTENNA OK*35
$GNGGA,181946.000,1546.1187,S,04752.1979,W,1,05,1.9,4.4,M,0.0,M,,*78
$GNGLL,1546.1187,S,04752.1979,W,181946.000,A,A*40
$GPGSA,A,3,05,21,12,25,24,,,,,,,,4.8,1.9,4.4*32
$BDGSA,A,3,,,,,,,,,,,,,4.8,1.9,4.4*27
$GPGSV,3,1,09,02,12,143,,05,37,104,15,12,56,083,27,21,31,299,24*7E
$GPGSV,3,2,09,24,25,360,23,25,60,186,22,29,,,17,31,11,229,*4C
$GPGSV,3,3,09,33,,,24*76
$BDGSV,1,1,00*68
$GNRMC,181946.000,A,1546.1187,S,04752.1979,W,5.69,74.60,091119,,,A*49
$GNVTG,74.60,T,,M,5.69,N,10.53,K,A*2B
$GNZDA,181946.000,09,11,2019,00,00*48
$GPTXT,01,01,01,ANTENNA OK*35
$GNGGA,181947.000,1546.1180,S,04752.1943,W,1,05,1.9,4.4,M,0.0,M,,*77
$GNGLL,1546.1180,S,04752.1943,W,181947.000,A,A*4F
$GPGSA,A,3,05,21,12,25,24,,,,,,,,4.8,1.9,4.4*32
$BDGSA,A,3,,,,,,,,,,,,,4.8,1.9,4.4*27
$GPGSV,3,1,09,02,12,143,,05,37,104,15,12,56,083,27,21,31,299,26*7C
$GPGSV,3,2,09,24,25,360,23,25,60,186,22,29,,,17,31,11,229,*4C
$GPGSV,3,3,09,33,,,24*76
$BDGSV,1,1,00*68
$GNRMC,181947.000,A,1546.1180,S,04752.1943,W,5.99,73.11,091119,,,A*48
$GNVTG,73.11,T,,M,5.99,N,11.09,K,A*2B
$GNZDA,181947.000,09,11,2019,00,00*49
$GPTXT,01,01,01,ANTENNA OK*35
$GNGGA,181948.000,1546.1175,S,04752.1903,W,1,05,1.9,4.4,M,0.0,M,,*76
$GNGLL,1546.1175,S,04752.1903,W,181948.000,A,A*4E
$GPGSA,A,3,05,21,12,25,24,,,,,,,,4.8,1.9,4.4*32
$BDGSA,A,3,,,,,,,,,,,,,4.8,1.9,4.4*27
$GPGSV,3,1,09,02,12,143,,05,37,104,15,12,56,083,27,21,31,299,26*7C
$GPGSV,3,2,09,24,25,360,23,25,60,186,22,29,,,19,31,11,229,*42
$GPGSV,3,3,09,33,,,24*76
$BDGSV,1,1,00*68
$GNRMC,181948.000,A,1546.1175,S,04752.1903,W,6.30,71.76,091119,,,A*4A
$GNVTG,71.76,T,,M,6.30,N,11.67,K,A*20
$GNZDA,181948.000,09,11,2019,00,00*46
$GPTXT,01,01,01,ANTENNA OK*35
$GNGGA,181949.000,1546.1171,S,04752.1866,W,1,05,1.9,4.4,M,0.0,M,,*71
$GNGLL,1546.1171,S,04752.1866,W,181949.000,A,A*49
$GPGSA,A,3,05,21,12,25,24,,,,,,,,4.8,1.9,4.4*32
$BDGSA,A,3,,,,,,,,,,,,,4.8,1.9,4.4*27
$GPGSV,3,1,09,02,12,143,,05,37,104,15,12,56,083,27,21,31,299,26*7C
$GPGSV,3,2,09,24,25,360,23,25,60,186,22,29,,,19,31,12,229,*41
$GPGSV,3,3,09,33,,,24*76
$BDGSV,1,1,00*68
$GNRMC,181949.000,A,1546.1171,S,04752.1866,W,9.00,59.63,091119,,,A*4F
$GNVTG,59.63,T,,M,9.00,N,16.66,K,A*24
$GNZDA,181949.000,09,11,2019,00,00*47
$GPTXT,01,01,01,ANTENNA OK*35
$GNGGA,181950.000,1546.1167,S,04752.1832,W,1,05,1.9,4.4,M,0.0,M,,*7F
$GNGLL,1546.1167,S,04752.1832,W,181950.000,A,A*47
$GPGSA,A,3,05,21,12,25,24,,,,,,,,4.8,1.9,4.4*32
$BDGSA,A,3,,,,,,,,,,,,,4.8,1.9,4.4*27
$GPGSV,3,1,09,02,12,143,,05,37,104,15,12,56,083,30,21,31,299,26*7A
$GPGSV,3,2,09,24,25,360,24,25,60,186,22,29,,,19,31,12,229,*46
$GPGSV,3,3,09,33,,,24*76
$BDGSV,1,1,00*68
$GNRMC,181950.000,A,1546.1167,S,04752.1832,W,9.12,48.60,091119,,,A*41
$GNVTG,48.60,T,,M,9.12,N,16.88,K,A*24
$GNZDA,181950.000,09,11,2019,00,00*4F
$GPTXT,01,01,01,ANTENNA OK*35
$GNGGA,181951.000,1546.1169,S,04752.1813,W,1,05,1.9,4.4,M,0.0,M,,*73
$GNGLL,1546.1169,S,04752.1813,W,181951.000,A,A*4B
$GPGSA,A,3,05,21,12,25,24,,,,,,,,4.8,1.9,4.4*32
$BDGSA,A,3,,,,,,,,,,,,,4.8,1.9,4.4*27
$GPGSV,3,1,09,02,12,143,,05,37,104,15,12,56,083,30,21,31,299,27*7B
$GPGSV,3,2,09,24,25,360,27,25,60,186,23,29,,,19,31,12,229,*44
$GPGSV,3,3,09,33,,,24*76
$BDGSV,1,1,00*68
$GNRMC,181951.000,A,1546.1169,S,04752.1813,W,8.84,42.52,091119,,,A*48
$GNVTG,42.52,T,,M,8.84,N,16.37,K,A*25
$GNZDA,181951.000,09,11,2019,00,00*4E
$GPTXT,01,01,01,ANTENNA OK*35
$GNGGA,181952.000,1546.1182,S,04752.1822,W,1,05,1.9,4.4,M,0.0,M,,*77
$GNGLL,1546.1182,S,04752.1822,W,181952.000,A,A*4F
$GPGSA,A,3,05,21,12,25,24,,,,,,,,4.8,1.9,4.4*32
$BDGSA,A,3,,,,,,,,,,,,,4.8,1.9,4.4*27
$GPGSV,3,1,09,02,12,143,,05,37,104,15,12,56,083,30,21,31,299,27*7B
$GPGSV,3,2,09,24,25,360,27,25,60,186,23,29,,,21,31,12,229,*4F
$GPGSV,3,3,09,33,,,24*76
$BDGSV,1,1,00*68
$GNRMC,181952.000,A,1546.1182,S,04752.1822,W,4.26,39.48,091119,,,A*4F
$GNVTG,39.48,T,,M,4.26,N,7.88,K,A*12
$GNZDA,181952.000,09,11,2019,00,00*4D
$GPTXT,01,01,01,ANTENNA OK*35
$GNGGA,181953.000,1546.1204,S,04752.1842,W,1,05,1.9,4.4,M,0.0,M,,*7D
$GNGLL,1546.1204,S,04752.1842,W,181953.000,A,A*45
$GPGSA,A,3,05,21,12,25,24,,,,,,,,4.8,1.9,4.4*32
$BDGSA,A,3,,,,,,,,,,,,,4.8,1.9,4.4*27
$GPGSV,3,1,09,02,12,143,,05,37,104,15,12,56,083,28,21,31,299,27*72
$GPGSV,3,2,09,24,25,360,27,25,60,186,23,29,,,21,31,12,229,*4F
$GPGSV,3,3,09,33,,,22*70
$BDGSV,1,1,00*68
$GNRMC,181953.000,A,1546.1204,S,04752.1842,W,1.54,35.04,091119,,,A*41
$GNVTG,35.04,T,,M,1.54,N,2.84,K,A*1F
$GNZDA,181953.000,09,11,2019,00,00*4C
$GPTXT,01,01,01,ANTENNA OK*35
$GNGGA,181954.000,1546.1219,S,04752.1850,W,1,05,1.9,4.4,M,0.0,M,,*75
$GNGLL,1546.1219,S,04752.1850,W,181954.000,A,A*4D
$GPGSA,A,3,05,21,12,25,24,,,,,,,,4.8,1.9,4.4*32
$BDGSA,A,3,,,,,,,,,,,,,4.8,1.9,4.4*27
$GPGSV,3,1,09,02,12,143,,05,37,104,15,12,56,083,28,21,31,299,27*72
$GPGSV,3,2,09,24,25,360,27,25,60,186,23,29,,,21,31,12,229,*4F
$GPGSV,3,3,09,33,,,22*70
$BDGSV,1,1,00*68
$GNRMC,181954.000,A,1546.1219,S,04752.1850,W,0.93,30.60,091119,,,A*44
$GNVTG,30.60,T,,M,0.93,N,1.72,K,A*18
$GNZDA,181954.000,09,11,2019,00,00*4B
$GPTXT,01,01,01,ANTENNA OK*35
$GNGGA,181955.000,1546.1233,S,04752.1857,W,1,05,1.9,4.4,M,0.0,M,,*7B
$GNGLL,1546.1233,S,04752.1857,W,181955.000,A,A*43
$GPGSA,A,3,05,21,12,25,24,,,,,,,,4.8,1.9,4.4*32
$BDGSA,A,3,,,,,,,,,,,,,4.8,1.9,4.4*27
$GPGSV,3,1,09,02,12,143,,05,37,104,15,12,56,083,29,21,31,299,27*73
$GPGSV,3,2,09,24,25,360,25,25,60,186,23,29,,,21,31,12,229,*4D
$GPGSV,3,3,09,33,,,12*73
$BDGSV,1,1,00*68
$GNRMC,181955.000,A,1546.1233,S,04752.1857,W,1.48,26.16,091119,,,A*4B
$GNVTG,26.16,T,,M,1.48,N,2.74,K,A*1C
$GNZDA,181955.000,09,11,2019,00,00*4A
$GPTXT,01,01,01,ANTENNA OK*35
$GNGGA,181956.000,1546.1242,S,04752.1862,W,1,05,1.9,4.4,M,0.0,M,,*78
$GNGLL,1546.1242,S,04752.1862,W,181956.000,A,A*40
$GPGSA,A,3,05,21,12,25,24,,,,,,,,4.8,1.9,4.4*32
$BDGSA,A,3,,,,,,,,,,,,,4.8,1.9,4.4*27
$GPGSV,3,1,09,02,12,143,,05,37,104,15,12,56,083,29,21,31,299,28*7C
$GPGSV,3,2,09,24,25,360,25,25,60,186,24,29,,,21,31,12,229,*4A
$GPGSV,3,3,09,33,,,12*73
$BDGSV,1,1,00*68
$GNRMC,181956.000,A,1546.1242,S,04752.1862,W,2.60,32.20,091119,,,A*41
$GNVTG,32.20,T,,M,2.60,N,4.82,K,A*1A
$GNZDA,181956.000,09,11,2019,00,00*49
$GPTXT,01,01,01,ANTENNA OK*35
$GNGGA,181957.000,1546.1245,S,04752.1864,W,1,05,1.9,4.4,M,0.0,M,,*78
$GNGLL,1546.1245,S,04752.1864,W,181957.000,A,A*40
$GPGSA,A,3,05,21,12,25,24,,,,,,,,4.8,1.9,4.4*32
$BDGSA,A,3,,,,,,,,,,,,,4.8,1.9,4.4*27
$GPGSV,3,1,09,02,12,143,,05,37,104,15,12,56,083,29,21,31,299,28*7C
$GPGSV,3,2,09,24,25,360,27,25,60,186,24,29,,,23,31,12,229,*4A
$GPGSV,3,3,09,33,,,18*79
$BDGSV,1,1,00*68
$GNRMC,181957.000,A,1546.1245,S,04752.1864,W,3.96,36.49,091119,,,A*42
$GNVTG,36.49,T,,M,3.96,N,7.34,K,A*17
$GNZDA,181957.000,09,11,2019,00,00*48
$GPTXT,01,01,01,ANTENNA OK*35
$GNGGA,181958.000,1546.1255,S,04752.1868,W,1,05,1.9,4.4,M,0.0,M,,*7A
$GNGLL,1546.1255,S,04752.1868,W,181958.000,A,A*42
$GPGSA,A,3,05,21,12,25,24,,,,,,,,4.8,1.9,4.4*32
$BDGSA,A,3,,,,,,,,,,,,,4.8,1.9,4.4*27
$GPGSV,3,1,09,02,12,143,,05,37,104,15,12,56,083,29,21,31,299,28*7C
$GPGSV,3,2,09,24,25,360,27,25,60,186,24,29,,,23,31,12,229,*4A
$GPGSV,3,3,09,33,,,18*79
$BDGSV,1,1,00*68
$GNRMC,181958.000,A,1546.1255,S,04752.1868,W,3.06,39.49,091119,,,A*46
$GNVTG,39.49,T,,M,3.06,N,5.67,K,A*15
$GNZDA,181958.000,09,11,2019,00,00*47
$GPTXT,01,01,01,ANTENNA OK*35
$GNGGA,181959.000,1546.1276,S,04752.1879,W,1,05,1.9,4.5,M,0.0,M,,*7B
$GNGLL,1546.1276,S,04752.1879,W,181959.000,A,A*42
$GPGSA,A,3,05,21,12,25,24,,,,,,,,4.8,1.9,4.4*32
$BDGSA,A,3,,,,,,,,,,,,,4.8,1.9,4.4*27
$GPGSV,3,1,09,02,12,143,,05,37,104,15,12,56,083,29,21,31,299,29*7D
$GPGSV,3,2,09,24,25,360,27,25,60,186,24,29,,,23,31,12,229,*4A
$GPGSV,3,3,09,33,,,18*79
$BDGSV,1,1,00*68
$GNRMC,181959.000,A,1546.1276,S,04752.1879,W,1.19,38.71,091119,,,A*40
$GNVTG,38.71,T,,M,1.19,N,2.20,K,A*17
$GNZDA,181959.000,09,11,2019,00,00*46
$GPTXT,01,01,01,ANTENNA OK*35
$GNGGA,182000.000,1546.1283,S,04752.1879,W,1,05,1.9,4.5,M,0.0,M,,*77
$GNGLL,1546.1283,S,04752.1879,W,182000.000,A,A*4E
$GPGSA,A,3,05,21,12,25,24,,,,,,,,4.8,1.9,4.4*32
$BDGSA,A,3,,,,,,,,,,,,,4.8,1.9,4.4*27
$GPGSV,3,1,09,02,12,143,,05,37,104,15,12,56,083,29,21,31,299,29*7D
$GPGSV,3,2,09,24,25,000,27,25,60,186,24,29,,,23,31,12,229,*4F
$GPGSV,3,3,09,33,,,18*79
$BDGSV,1,1,00*68
$GNRMC,182000.000,A,1546.1283,S,04752.1879,W,1.55,37.93,091119,,,A*47
$GNVTG,37.93,T,,M,1.55,N,2.87,K,A*11
$GNZDA,182000.000,09,11,2019,00,00*40
$GPTXT,01,01,01,ANTENNA OK*35
$GNGGA,182001.000,1546.1288,S,04752.1880,W,1,05,1.9,4.5,M,0.0,M,,*7B
$GNGLL,1546.1288,S,04752.1880,W,182001.000,A,A*42
$GPGSA,A,3,05,21,12,25,24,,,,,,,,4.8,1.9,4.4*32
$BDGSA,A,3,,,,,,,,,,,,,4.8,1.9,4.4*27
$GPGSV,3,1,09,02,12,143,,05,37,104,15,12,56,083,29,21,31,299,29*7D
$GPGSV,3,2,09,24,25,000,27,25,60,186,24,29,,,23,31,12,229,*4F
$GPGSV,3,3,09,33,,,18*79
$BDGSV,1,1,00*68
$GNRMC,182001.000,A,1546.1288,S,04752.1880,W,2.01,40.78,091119,,,A*4C
$GNVTG,40.78,T,,M,2.01,N,3.72,K,A*1D
$GNZDA,182001.000,09,11,2019,00,00*41
$GPTXT,01,01,01,ANTENNA OK*35
$GNGGA,182002.000,1546.1289,S,04752.1881,W,1,05,1.9,4.5,M,0.0,M,,*78
$GNGLL,1546.1289,S,04752.1881,W,182002.000,A,A*41
$GPGSA,A,3,05,21,12,25,24,,,,,,,,4.8,1.9,4.4*32
$BDGSA,A,3,,,,,,,,,,,,,4.8,1.9,4.4*27
$GPGSV,3,1,09,02,12,143,,05,37,104,15,12,56,083,29,21,31,299,29*7D
$GPGSV,3,2,09,24,25,000,27,25,60,186,24,29,,,23,31,12,229,*4F
$GPGSV,3,3,09,33,,,15*74
$BDGSV,1,1,00*68
$GNRMC,182002.000,A,1546.1289,S,04752.1881,W,2.88,42.44,091119,,,A*43
$GNVTG,42.44,T,,M,2.88,N,5.33,K,A*12
$GNZDA,182002.000,09,11,2019,00,00*42
$GPTXT,01,01,01,ANTENNA OK*35
$GNGGA,182003.000,1546.1297,S,04752.1880,W,1,05,1.9,4.5,M,0.0,M,,*77
$GNGLL,1546.1297,S,04752.1880,W,182003.000,A,A*4E
$GPGSA,A,3,05,21,12,25,24,,,,,,,,4.8,1.9,4.4*32
$BDGSA,A,3,,,,,,,,,,,,,4.8,1.9,4.4*27
$GPGSV,3,1,09,02,12,143,,05,37,104,15,12,56,083,28,21,31,299,28*7D
$GPGSV,3,2,09,24,25,000,27,25,60,186,24,29,,,23,31,12,229,*4F
$GPGSV,3,3,09,33,,,03*73
$BDGSV,1,1,00*68
$GNRMC,182003.000,A,1546.1297,S,04752.1880,W,0.00,42.44,091119,,,A*4E
$GNVTG,42.44,T,,M,0.00,N,0.00,K,A*15
$GNZDA,182003.000,09,11,2019,00,00*43
$GPTXT,01,01,01,ANTENNA OK*35
$GNGGA,182004.000,1546.1305,S,04752.1880,W,1,05,1.9,4.4,M,0.0,M,,*7B
$GNGLL,1546.1305,S,04752.1880,W,182004.000,A,A*43
$GPGSA,A,3,05,21,12,25,24,,,,,,,,4.8,1.9,4.4*32
$BDGSA,A,3,,,,,,,,,,,,,4.8,1.9,4.4*27
$GPGSV,3,1,09,02,12,143,,05,37,104,15,12,56,083,28,21,31,299,28*7D
$GPGSV,3,2,09,24,25,000,26,25,60,186,24,29,,,23,31,12,229,*4E
$GPGSV,3,3,09,33,,,03*73
$BDGSV,1,1,00*68
$GNRMC,182004.000,A,1546.1305,S,04752.1880,W,0.00,42.44,091119,,,A*43
$GNVTG,42.44,T,,M,0.00,N,0.00,K,A*15
$GNZDA,182004.000,09,11,2019,00,00*44
$GPTXT,01,01,01,ANTENNA OK*35
$GNGGA,182005.000,1546.1314,S,04752.1877,W,1,05,1.9,4.5,M,0.0,M,,*73
$GNGLL,1546.1314,S,04752.1877,W,182005.000,A,A*4A
$GPGSA,A,3,05,21,12,25,24,,,,,,,,4.8,1.9,4.4*32
$BDGSA,A,3,,,,,,,,,,,,,4.8,1.9,4.4*27
$GPGSV,3,1,09,02,12,143,,05,37,104,15,12,56,083,28,21,31,299,28*7D
$GPGSV,3,2,09,24,25,000,26,25,60,186,24,29,,,23,31,12,229,*4E
$GPGSV,3,3,09,33,,,03*73
$BDGSV,1,1,00*68
$GNRMC,182005.000,A,1546.1314,S,04752.1877,W,1.35,42.44,091119,,,A*4D
$GNVTG,42.44,T,,M,1.35,N,2.50,K,A*15
$GNZDA,182005.000,09,11,2019,00,00*45
$GPTXT,01,01,01,ANTENNA OK*35
$GNGGA,182006.000,1546.1321,S,04752.1877,W,1,05,1.9,4.5,M,0.0,M,,*76
$GNGLL,1546.1321,S,04752.1877,W,182006.000,A,A*4F
$GPGSA,A,3,05,21,12,25,24,,,,,,,,4.8,1.9,4.4*32
$BDGSA,A,3,,,,,,,,,,,,,4.8,1.9,4.4*27
$GPGSV,3,1,09,02,12,143,,05,37,104,15,12,56,083,25,21,31,299,28*70
$GPGSV,3,2,09,24,25,000,26,25,60,186,24,29,,,23,31,12,229,*4E
$GPGSV,3,3,09,33,,,10*71
$BDGSV,1,1,00*68
$GNRMC,182006.000,A,1546.1321,S,04752.1877,W,0.00,42.44,091119,,,A*4F
$GNVTG,42.44,T,,M,0.00,N,0.00,K,A*15
$GNZDA,182006.000,09,11,2019,00,00*46
$GPTXT,01,01,01,ANTENNA OK*35
$GNGGA,182007.000,1546.1329,S,04752.1877,W,1,05,1.9,4.4,M,0.0,M,,*7E
$GNGLL,1546.1329,S,04752.1877,W,182007.000,A,A*46
$GPGSA,A,3,05,21,12,25,24,,,,,,,,4.8,1.9,4.4*32
$BDGSA,A,3,,,,,,,,,,,,,4.8,1.9,4.4*27
$GPGSV,2,1,08,02,12,143,,05,37,104,15,12,56,083,25,21,31,299,28*70
$GPGSV,2,2,08,24,25,000,26,25,60,186,24,29,,,23,31,12,229,*4E
$BDGSV,1,1,00*68
$GNRMC,182007.000,A,1546.1329,S,04752.1877,W,0.00,42.44,091119,,,A*46
$GNVTG,42.44,T,,M,0.00,N,0.00,K,A*15
$GNZDA,182007.000,09,11,2019,00,00*47
$GPTXT,01,01,01,ANTENNA OK*35
$GNGGA,182008.000,1546.1354,S,04752.1900,W,1,05,1.9,4.4,M,0.0,M,,*7A
$GNGLL,1546.1354,S,04752.1900,W,182008.000,A,A*42
$GPGSA,A,3,05,21,12,25,24,,,,,,,,4.8,1.9,4.4*32
$BDGSA,A,3,,,,,,,,,,,,,4.8,1.9,4.4*27
$GPGSV,2,1,08,02,12,143,,05,37,104,15,12,56,083,27,21,31,299,28*72
$GPGSV,2,2,08,24,25,000,24,25,60,186,24,29,,,23,31,12,229,*4C
$BDGSV,1,1,00*68
$GNRMC,182008.000,A,1546.1354,S,04752.1900,W,0.00,42.44,091119,,,A*42
$GNVTG,42.44,T,,M,0.00,N,0.00,K,A*15
$GNZDA,182008.000,09,11,2019,00,00*48
$GPTXT,01,01,01,ANTENNA OK*35
$GNGGA,182009.000,1546.1373,S,04752.1916,W,1,05,1.9,4.4,M,0.0,M,,*79
$GNGLL,1546.1373,S,04752.1916,W,182009.000,A,A*41
$GPGSA,A,3,05,21,12,25,24,,,,,,,,4.8,1.9,4.4*32
$BDGSA,A,3,,,,,,,,,,,,,4.8,1.9,4.4*27
$GPGSV,2,1,08,02,12,143,,05,37,104,15,12,56,083,27,21,31,299,28*72
$GPGSV,2,2,08,24,25,000,24,25,60,186,24,29,,,23,31,12,229,*4C
$BDGSV,1,1,00*68
$GNRMC,182009.000,A,1546.1373,S,04752.1916,W,0.51,42.44,091119,,,A*45
$GNVTG,42.44,T,,M,0.51,N,0.94,K,A*1C
$GNZDA,182009.000,09,11,2019,00,00*49
$GPTXT,01,01,01,ANTENNA OK*35
$GNGGA,182010.000,1546.1387,S,04752.1927,W,1,05,1.9,4.4,M,0.0,M,,*78
$GNGLL,1546.1387,S,04752.1927,W,182010.000,A,A*40
$GPGSA,A,3,05,21,12,25,24,,,,,,,,4.8,1.9,4.4*32
$BDGSA,A,3,,,,,,,,,,,,,4.8,1.9,4.4*27
$GPGSV,2,1,08,02,12,143,,05,37,104,15,12,56,083,27,21,31,299,27*7D
$GPGSV,2,2,08,24,25,000,24,25,60,186,24,29,,,22,31,12,229,*4D
$BDGSV,1,1,00*68
$GNRMC,182010.000,A,1546.1387,S,04752.1927,W,0.99,42.44,091119,,,A*40
$GNVTG,42.44,T,,M,0.99,N,1.83,K,A*1F
$GNZDA,182010.000,09,11,2019,00,00*41
$GPTXT,01,01,01,ANTENNA OK*35
$GNGGA,182011.000,1546.1386,S,04752.1921,W,1,05,1.9,4.4,M,0.0,M,,*7E
$GNGLL,1546.1386,S,04752.1921,W,182011.000,A,A*46
$GPGSA,A,3,05,21,12,25,24,,,,,,,,4.8,1.9,4.4*32
$BDGSA,A,3,,,,,,,,,,,,,4.8,1.9,4.4*27
$GPGSV,2,1,08,02,12,143,,05,37,104,15,12,56,083,27,21,31,299,27*7D
$GPGSV,2,2,08,24,25,000,24,25,60,186,22,29,,,22,31,12,229,*4B
$BDGSV,1,1,00*68
$GNRMC,182011.000,A,1546.1386,S,04752.1921,W,0.00,42.44,091119,,,A*46
$GNVTG,42.44,T,,M,0.00,N,0.00,K,A*15
$GNZDA,182011.000,09,11,2019,00,00*40
$GPTXT,01,01,01,ANTENNA OK*35
$GNGGA,182012.000,1546.1385,S,04752.1915,W,1,05,1.9,4.4,M,0.0,M,,*79
$GNGLL,1546.1385,S,04752.1915,W,182012.000,A,A*41
$GPGSA,A,3,05,21,12,25,24,,,,,,,,4.8,1.9,4.4*32
$BDGSA,A,3,,,,,,,,,,,,,4.8,1.9,4.4*27
$GPGSV,2,1,08,02,12,143,,05,37,104,15,12,56,083,26,21,31,299,27*7C
$GPGSV,2,2,08,24,25,000,24,25,60,186,22,29,,,22,31,12,229,*4B
$BDGSV,1,1,00*68
$GNRMC,182012.000,A,1546.1385,S,04752.1915,W,0.00,42.44,091119,,,A*41
$GNVTG,42.44,T,,M,0.00,N,0.00,K,A*15
$GNZDA,182012.000,09,11,2019,00,00*43
$GPTXT,01,01,01,ANTENNA OK*35
$GNGGA,182013.000,1546.1385,S,04752.1910,W,1,05,1.9,4.4,M,0.0,M,,*7D
$GNGLL,1546.1385,S,04752.1910,W,182013.000,A,A*45
$GPGSA,A,3,05,21,12,25,24,,,,,,,,4.8,1.9,4.4*32
$BDGSA,A,3,,,,,,,,,,,,,4.8,1.9,4.4*27
$GPGSV,2,1,08,02,12,143,,05,37,104,15,12,56,083,26,21,31,299,27*7C
$GPGSV,2,2,08,24,25,000,24,25,60,186,22,29,,,22,31,12,229,*4B
$BDGSV,1,1,00*68
$GNRMC,182013.000,A,1546.1385,S,04752.1910,W,0.00,42.44,091119,,,A*45
$GNVTG,42.44,T,,M,0.00,N,0.00,K,A*15
$GNZDA,182013.000,09,11,2019,00,00*42
$GPTXT,01,01,01,ANTENNA OK*35
$GNGGA,182014.000,1546.1385,S,04752.1905,W,1,05,1.9,4.4,M,0.0,M,,*7E
$GNGLL,1546.1385,S,04752.1905,W,182014.000,A,A*46
$GPGSA,A,3,05,21,12,25,24,,,,,,,,4.8,1.9,4.4*32
$BDGSA,A,3,,,,,,,,,,,,,4.8,1.9,4.4*27
$GPGSV,2,1,08,02,12,143,,05,37,104,15,12,56,083,26,21,31,299,27*7C
$GPGSV,2,2,08,24,25,000,24,25,60,186,22,29,,,22,31,12,229,*4B
$BDGSV,1,1,00*68
$GNRMC,182014.000,A,1546.1385,S,04752.1905,W,0.00,42.44,091119,,,A*46
$GNVTG,42.44,T,,M,0.00,N,0.00,K,A*15
$GNZDA,182014.000,09,11,2019,00,00*45
$GPTXT,01,01,01,ANTENNA OK*35
$GNGGA,182015.000,1546.1380,S,04752.1903,W,1,05,1.9,4.4,M,0.0,M,,*7C
$GNGLL,1546.1380,S,04752.1903,W,182015.000,A,A*44
$GPGSA,A,3,05,21,12,25,24,,,,,,,,4.8,1.9,4.4*32
$BDGSA,A,3,,,,,,,,,,,,,4.8,1.9,4.4*27
$GPGSV,2,1,08,02,12,143,,05,37,104,13,12,56,083,26,21,31,299,27*7A
$GPGSV,2,2,08,24,25,000,24,25,60,186,22,29,,,22,31,12,229,*4B
$BDGSV,1,1,00*68
$GNRMC,182015.000,A,1546.1380,S,04752.1903,W,2.99,42.32,091119,,,A*47
$GNVTG,42.32,T,,M,2.99,N,5.54,K,A*12
$GNZDA,182015.000,09,11,2019,00,00*44
$GPTXT,01,01,01,ANTENNA OK*35
$GNGGA,182016.000,1546.1372,S,04752.1904,W,1,05,1.9,4.4,M,0.0,M,,*75
$GNGLL,1546.1372,S,04752.1904,W,182016.000,A,A*4D
$GPGSA,A,3,05,21,12,25,24,,,,,,,,4.8,1.9,4.4*32
$BDGSA,A,3,,,,,,,,,,,,,4.8,1.9,4.4*27
$GPGSV,2,1,08,02,12,143,,05,37,104,13,12,56,083,26,21,31,299,26*7B
$GPGSV,2,2,08,24,25,000,24,25,60,186,22,29,,,20,31,12,229,*49
$BDGSV,1,1,00*68
$GNRMC,182016.000,A,1546.1372,S,04752.1904,W,3.75,40.79,091119,,,A*40
$GNVTG,40.79,T,,M,3.75,N,6.94,K,A*13
$GNZDA,182016.000,09,11,2019,00,00*47
$GPTXT,01,01,01,ANTENNA OK*35
$GNGGA,182017.000,1546.1361,S,04752.1907,W,1,05,1.9,4.5,M,0.0,M,,*74
$GNGLL,1546.1361,S,04752.1907,W,182017.000,A,A*4D
$GPGSA,A,3,05,21,12,25,24,,,,,,,,4.8,1.9,4.4*32
$BDGSA,A,3,,,,,,,,,,,,,4.8,1.9,4.4*27
$GPGSV,2,1,08,02,12,143,,05,37,104,13,12,56,082,26,21,31,299,26*7A
$GPGSV,2,2,08,24,25,000,24,25,60,186,22,29,,,20,31,12,229,*49
$BDGSV,1,1,00*68
$GNRMC,182017.000,A,1546.1361,S,04752.1907,W,3.75,37.88,091119,,,A*4E
$GNVTG,37.88,T,,M,3.75,N,6.95,K,A*1C
$GNZDA,182017.000,09,11,2019,00,00*46
$GPTXT,01,01,01,ANTENNA OK*35
$GNGGA,182018.000,1546.1344,S,04752.1911,W,1,05,1.9,4.5,M,0.0,M,,*7B
$GNGLL,1546.1344,S,04752.1911,W,182018.000,A,A*42
$GPGSA,A,3,05,21,12,25,24,,,,,,,,4.8,1.9,4.4*32
$BDGSA,A,3,,,,,,,,,,,,,4.8,1.9,4.4*27
$GPGSV,2,1,08,02,12,143,,05,37,104,13,12,56,082,26,21,31,299,29*75
$GPGSV,2,2,08,24,25,000,24,25,60,186,23,29,,,20,31,12,229,*48
$BDGSV,1,1,00*68
$GNRMC,182018.000,A,1546.1344,S,04752.1911,W,3.80,33.99,091119,,,A*4F
$GNVTG,33.99,T,,M,3.80,N,7.03,K,A*1C
$GNZDA,182018.000,09,11,2019,00,00*49
$GPTXT,01,01,01,ANTENNA OK*35
$GNGGA,182019.000,1546.1321,S,04752.1914,W,1,05,1.9,4.5,M,0.0,M,,*7C
$GNGLL,1546.1321,S,04752.1914,W,182019.000,A,A*45
$GPGSA,A,3,05,21,12,25,24,,,,,,,,4.8,1.9,4.4*32
$BDGSA,A,3,,,,,,,,,,,,,4.8,1.9,4.4*27
$GPGSV,2,1,08,02,12,143,,05,37,104,13,12,56,082,27,21,31,299,29*74
$GPGSV,2,2,08,24,25,000,27,25,60,186,23,29,,,23,31,12,229,*48
$BDGSV,1,1,00*68
$GNRMC,182019.000,A,1546.1321,S,04752.1914,W,3.86,29.58,091119,,,A*48
$GNVTG,29.58,T,,M,3.86,N,7.15,K,A*1B
$GNZDA,182019.000,09,11,2019,00,00*48
$GPTXT,01,01,01,ANTENNA OK*35
$GNGGA,182020.000,1546.1295,S,04752.1920,W,1,05,1.9,4.5,M,0.0,M,,*7F
$GNGLL,1546.1295,S,04752.1920,W,182020.000,A,A*46
$GPGSA,A,3,05,21,12,25,24,,,,,,,,4.8,1.9,4.4*32
$BDGSA,A,3,,,,,,,,,,,,,4.8,1.9,4.4*27
$GPGSV,2,1,08,02,12,143,,05,37,104,13,12,56,082,29,21,31,299,29*7A
$GPGSV,2,2,08,24,25,000,27,25,61,186,23,29,,,23,31,12,229,*49
$BDGSV,1,1,00*68
$GNRMC,182020.000,A,1546.1295,S,04752.1920,W,3.94,24.98,091119,,,A*49
$GNVTG,24.98,T,,M,3.94,N,7.30,K,A*1E
$GNZDA,182020.000,09,11,2019,00,00*42
$GPTXT,01,01,01,ANTENNA OK*35
$GNGGA,182021.000,1546.1269,S,04752.1930,W,1,05,1.9,4.5,M,0.0,M,,*7C
$GNGLL,1546.1269,S,04752.1930,W,182021.000,A,A*45
$GPGSA,A,3,05,21,12,25,24,,,,,,,,4.8,1.9,4.4*32
$BDGSA,A,3,,,,,,,,,,,,,4.8,1.9,4.4*27
$GPGSV,2,1,08,02,12,143,,05,37,104,13,12,56,082,29,21,31,299,29*7A
$GPGSV,2,2,08,24,25,000,27,25,61,186,23,29,,,23,31,12,229,*49
$BDGSV,1,1,00*68
$GNRMC,182021.000,A,1546.1269,S,04752.1930,W,4.04,20.40,091119,,,A*45
$GNVTG,20.40,T,,M,4.04,N,7.48,K,A*1E
$GNZDA,182021.000,09,11,2019,00,00*43
$GPTXT,01,01,01,ANTENNA OK*35
$GNGGA,182022.000,1546.1245,S,04752.1939,W,1,05,1.9,4.5,M,0.0,M,,*78
$GNGLL,1546.1245,S,04752.1939,W,182022.000,A,A*41
$GPGSA,A,3,05,21,12,25,24,,,,,,,,4.8,1.9,4.4*32
$BDGSA,A,3,,,,,,,,,,,,,4.8,1.9,4.4*27
$GPGSV,2,1,08,02,12,143,,05,37,104,13,12,56,082,29,21,31,299,29*7A
$GPGSV,2,2,08,24,25,000,27,25,61,186,23,29,,,23,31,12,229,*49
$BDGSV,1,1,00*68
$GNRMC,182022.000,A,1546.1245,S,04752.1939,W,4.16,15.97,091119,,,A*4E
$GNVTG,15.97,T,,M,4.16,N,7.70,K,A*1A
$GNZDA,182022.000,09,11,2019,00,00*40
$GPTXT,01,01,01,ANTENNA OK*35
$GNGGA,182023.000,1546.1224,S,04752.1948,W,1,05,1.9,4.5,M,0.0,M,,*78
$GNGLL,1546.1224,S,04752.1948,W,182023.000,A,A*41
$GPGSA,A,3,05,21,12,25,24,,,,,,,,4.8,1.9,4.4*32
$BDGSA,A,3,,,,,,,,,,,,,4.8,1.9,4.4*27
$GPGSV,2,1,08,02,12,143,,05,37,104,13,12,56,082,29,21,31,299,28*7B
$GPGSV,2,2,08,24,25,000,25,25,61,186,24,29,,,23,31,12,229,*4C
$BDGSV,1,1,00*68
$GNRMC,182023.000,A,1546.1224,S,04752.1948,W,5.50,2.24,091119,,,A*73
$GNVTG,2.24,T,,M,5.50,N,10.18,K,A*1F
$GNZDA,182023.000,09,11,2019,00,00*41
$GPTXT,01,01,01,ANTENNA OK*35
$GNGGA,182024.000,1546.1205,S,04752.1958,W,1,05,1.9,4.4,M,0.0,M,,*7C
$GNGLL,1546.1205,S,04752.1958,W,182024.000,A,A*44
$GPGSA,A,3,05,21,12,25,24,,,,,,,,4.7,1.9,4.4*3D
$BDGSA,A,3,,,,,,,,,,,,,4.7,1.9,4.4*28
$GPGSV,2,1,08,02,12,143,,05,37,104,13,12,56,082,29,21,31,299,28*7B
$GPGSV,2,2,08,24,25,000,25,25,61,186,24,29,,,23,31,12,229,*4C
$BDGSV,1,1,00*68
$GNRMC,182024.000,A,1546.1205,S,04752.1958,W,5.71,346.71,091119,,,A*76
$GNVTG,346.71,T,,M,5.71,N,10.58,K,A*1B
$GNZDA,182024.000,09,11,2019,00,00*46
$GPTXT,01,01,01,ANTENNA OK*35
$GNGGA,182025.000,1546.1208,S,04752.1953,W,1,05,1.9,4.4,M,0.0,M,,*7B
$GNGLL,1546.1208,S,04752.1953,W,182025.000,A,A*43
$GPGSA,A,3,05,21,12,25,24,,,,,,,,4.7,1.9,4.4*3D
$BDGSA,A,3,,,,,,,,,,,,,4.7,1.9,4.4*28
$GPGSV,2,1,08,02,12,143,,05,37,104,15,12,56,082,29,21,31,299,28*7D
$GPGSV,2,2,08,24,25,000,25,25,61,186,27,29,,,23,31,12,229,*4F
$BDGSV,1,1,00*68
$GNRMC,182025.000,A,1546.1208,S,04752.1953,W,0.00,346.71,091119,,,A*72
$GNVTG,346.71,T,,M,0.00,N,0.00,K,A*24
$GNZDA,182025.000,09,11,2019,00,00*47
$GPTXT,01,01,01,ANTENNA OK*35
$GNGGA,182026.000,1546.1216,S,04752.1948,W,1,05,1.9,4.4,M,0.0,M,,*7D
$GNGLL,1546.1216,S,04752.1948,W,182026.000,A,A*45
$GPGSA,A,3,05,21,12,25,24,,,,,,,,4.7,1.9,4.4*3D
$BDGSA,A,3,,,,,,,,,,,,,4.7,1.9,4.4*28
$GPGSV,2,1,08,02,12,143,,05,37,104,15,12,56,082,28,21,31,299,28*7C
$GPGSV,2,2,08,24,24,000,27,25,61,186,27,29,,,22,31,12,229,*4D
$BDGSV,1,1,00*68
$GNRMC,182026.000,A,1546.1216,S,04752.1948,W,0.00,346.71,091119,,,A*74
$GNVTG,346.71,T,,M,0.00,N,0.00,K,A*24
$GNZDA,182026.000,09,11,2019,00,00*44
$GPTXT,01,01,01,ANTENNA OK*35
$GNGGA,182027.000,1546.1226,S,04752.1943,W,1,05,1.9,4.4,M,0.0,M,,*74
$GNGLL,1546.1226,S,04752.1943,W,182027.000,A,A*4C
$GPGSA,A,3,05,21,12,25,24,,,,,,,,4.7,1.9,4.4*3D
$BDGSA,A,3,,,,,,,,,,,,,4.7,1.9,4.4*28
$GPGSV,2,1,08,02,12,143,,05,37,104,21,12,56,082,30,21,31,299,29*73
$GPGSV,2,2,08,24,24,000,27,25,61,186,27,29,,,22,31,12,229,*4D
$BDGSV,1,1,00*68
$GNRMC,182027.000,A,1546.1226,S,04752.1943,W,0.00,346.71,091119,,,A*7D
$GNVTG,346.71,T,,M,0.00,N,0.00,K,A*24
$GNZDA,182027.000,09,11,2019,00,00*45
$GPTXT,01,01,01,ANTENNA OK*35
$GNGGA,182028.000,1546.1228,S,04752.1939,W,1,05,1.9,4.4,M,0.0,M,,*78
$GNGLL,1546.1228,S,04752.1939,W,182028.000,A,A*40
$GPGSA,A,3,05,21,12,25,24,,,,,,,,4.7,1.9,4.4*3D
$BDGSA,A,3,,,,,,,,,,,,,4.7,1.9,4.4*28
$GPGSV,2,1,08,02,12,143,,05,37,104,21,12,56,082,30,21,31,299,29*73
$GPGSV,2,2,08,24,24,000,27,25,61,186,27,29,,,22,31,12,229,*4D
$BDGSV,1,1,00*68
$GNRMC,182028.000,A,1546.1228,S,04752.1939,W,0.00,346.71,091119,,,A*71
$GNVTG,346.71,T,,M,0.00,N,0.00,K,A*24
$GNZDA,182028.000,09,11,2019,00,00*4A
$GPTXT,01,01,01,ANTENNA OK*35
$GNGGA,182029.000,1546.1236,S,04752.1942,W,1,05,1.9,4.4,M,0.0,M,,*7A
$GNGLL,1546.1236,S,04752.1942,W,182029.000,A,A*42
$GPGSA,A,3,05,21,12,25,24,,,,,,,,4.7,1.9,4.4*3D
$BDGSA,A,3,,,,,,,,,,,,,4.7,1.9,4.4*28
$GPGSV,2,1,08,02,12,143,,05,37,104,21,12,56,082,30,21,31,299,29*73
$GPGSV,2,2,08,24,24,000,27,25,61,186,27,29,,,22,31,12,229,*4D
$BDGSV,1,1,00*68
$GNRMC,182029.000,A,1546.1236,S,04752.1942,W,0.00,346.71,091119,,,A*73
$GNVTG,346.71,T,,M,0.00,N,0.00,K,A*24
$GNZDA,182029.000,09,11,2019,00,00*4B
$GPTXT,01,01,01,ANTENNA OK*35
$GNGGA,182030.000,1546.1238,S,04752.1937,W,1,05,1.9,4.4,M,0.0,M,,*7E
$GNGLL,1546.1238,S,04752.1937,W,182030.000,A,A*46
$GPGSA,A,3,05,21,12,25,24,,,,,,,,4.7,1.9,4.4*3D
$BDGSA,A,3,,,,,,,,,,,,,4.7,1.9,4.4*28
$GPGSV,2,1,08,02,12,143,,05,37,104,21,12,56,082,30,21,31,299,29*73
$GPGSV,2,2,08,24,24,000,27,25,61,186,27,29,,,22,31,12,229,*4D
$BDGSV,1,1,00*68
$GNRMC,182030.000,A,1546.1238,S,04752.1937,W,0.00,346.71,091119,,,A*77
$GNVTG,346.71,T,,M,0.00,N,0.00,K,A*24
$GNZDA,182030.000,09,11,2019,00,00*43
$GPTXT,01,01,01,ANTENNA OK*35
$GNGGA,182031.000,1546.1234,S,04752.1928,W,1,05,1.9,4.5,M,0.0,M,,*7C
$GNGLL,1546.1234,S,04752.1928,W,182031.000,A,A*45
$GPGSA,A,3,05,21,12,25,24,,,,,,,,4.7,1.9,4.4*3D
$BDGSA,A,3,,,,,,,,,,,,,4.7,1.9,4.4*28
$GPGSV,2,1,08,02,12,143,,05,37,104,21,12,56,082,30,21,31,299,29*73
$GPGSV,2,2,08,24,24,000,28,25,61,186,27,29,,,22,31,12,229,*42
$BDGSV,1,1,00*68
$GNRMC,182031.000,A,1546.1234,S,04752.1928,W,2.57,335.91,091119,,,A*7E
$GNVTG,335.91,T,,M,2.57,N,4.77,K,A*2A
$GNZDA,182031.000,09,11,2019,00,00*42
$GPTXT,01,01,01,ANTENNA OK*35
$GNGGA,182032.000,1546.1225,S,04752.1915,W,1,05,1.9,4.6,M,0.0,M,,*72
$GNGLL,1546.1225,S,04752.1915,W,182032.000,A,A*48
$GPGSA,A,3,05,21,12,25,24,,,,,,,,4.7,1.9,4.4*3D
$BDGSA,A,3,,,,,,,,,,,,,4.7,1.9,4.4*28
$GPGSV,2,1,08,02,12,143,,05,37,104,21,12,56,082,30,21,31,299,29*73
$GPGSV,2,2,08,24,24,000,28,25,61,186,26,29,,,22,31,12,229,*43
$BDGSV,1,1,00*68
$GNRMC,182032.000,A,1546.1225,S,04752.1915,W,2.62,328.26,091119,,,A*75
$GNVTG,328.26,T,,M,2.62,N,4.86,K,A*22
$GNZDA,182032.000,09,11,2019,00,00*41
$GPTXT,01,01,01,ANTENNA OK*35
$GNGGA,182033.000,1546.1208,S,04752.1901,W,1,05,1.9,4.6,M,0.0,M,,*79
$GNGLL,1546.1208,S,04752.1901,W,182033.000,A,A*43
$GPGSA,A,3,05,21,12,25,24,,,,,,,,4.7,1.9,4.4*3D
$BDGSA,A,3,,,,,,,,,,,,,4.7,1.9,4.4*28
$GPGSV,2,1,08,02,12,143,,05,37,104,21,12,56,082,30,21,31,299,29*73
$GPGSV,2,2,08,24,24,000,28,25,61,186,26,29,,,22,31,12,229,*43
$BDGSV,1,1,00*68
$GNRMC,182033.000,A,1546.1208,S,04752.1901,W,2.75,326.23,091119,,,A*73
$GNVTG,326.23,T,,M,2.75,N,5.09,K,A*29
$GNZDA,182033.000,09,11,2019,00,00*40
$GPTXT,01,01,01,ANTENNA OK*35
$GNGGA,182034.000,1546.1185,S,04752.1883,W,1,05,1.9,4.6,M,0.0,M,,*73
$GNGLL,1546.1185,S,04752.1883,W,182034.000,A,A*49
$GPGSA,A,3,05,21,12,25,24,,,,,,,,4.7,1.9,4.4*3D
$BDGSA,A,3,,,,,,,,,,,,,4.7,1.9,4.4*28
$GPGSV,2,1,08,02,12,143,,05,37,104,22,12,56,082,30,21,31,299,29*70
$GPGSV,2,2,08,24,24,000,28,25,61,186,26,29,,,22,31,12,229,*43
$BDGSV,1,1,00*68
$GNRMC,182034.000,A,1546.1185,S,04752.1883,W,2.95,328.27,091119,,,A*7D
$GNVTG,328.27,T,,M,2.95,N,5.47,K,A*27
$GNZDA,182034.000,09,11,2019,00,00*47
$GPTXT,01,01,01,ANTENNA OK*35
$GNGGA,182035.000,1546.1156,S,04752.1861,W,1,05,1.9,4.6,M,0.0,M,,*70
$GNGLL,1546.1156,S,04752.1861,W,182035.000,A,A*4A
$GPGSA,A,3,05,21,12,25,24,,,,,,,,4.7,1.9,4.4*3D
$BDGSA,A,3,,,,,,,,,,,,,4.7,1.9,4.4*28
$GPGSV,2,1,08,02,12,143,,05,37,104,22,12,56,082,30,21,31,299,29*70
$GPGSV,2,2,08,24,24,000,28,25,61,186,26,29,,,22,31,12,229,*43
$BDGSV,1,1,00*68
$GNRMC,182035.000,A,1546.1156,S,04752.1861,W,3.23,332.95,091119,,,A*70
$GNVTG,332.95,T,,M,3.23,N,5.98,K,A*2B
$GNZDA,182035.000,09,11,2019,00,00*46
$GPTXT,01,01,01,ANTENNA OK*35
$GNGGA,182036.000,1546.1120,S,04752.1828,W,1,06,1.2,4.6,M,0.0,M,,*77
$GNGLL,1546.1120,S,04752.1828,W,182036.000,A,A*45
$GPGSA,A,3,05,21,12,25,24,31,,,,,,,2.5,1.2,2.2*30
$BDGSA,A,3,,,,,,,,,,,,,2.5,1.2,2.2*27
$GPGSV,2,1,08,02,12,143,,05,37,104,22,12,56,082,30,21,31,299,29*70
$GPGSV,2,2,08,24,24,000,28,25,61,186,26,29,,,22,31,12,229,20*41
$BDGSV,1,1,00*68
$GNRMC,182036.000,A,1546.1120,S,04752.1828,W,3.60,339.49,091119,,,A*72
$GNVTG,339.49,T,,M,3.60,N,6.67,K,A*25
$GNZDA,182036.000,09,11,2019,00,00*45
$GPTXT,01,01,01,ANTENNA OK*35
$GNGGA,182037.000,1546.1085,S,04752.1784,W,1,06,1.2,4.5,M,0.0,M,,*72
$GNGLL,1546.1085,S,04752.1784,W,182037.000,A,A*43
$GPGSA,A,3,05,21,12,25,24,31,,,,,,,2.5,1.2,2.2*30
$BDGSA,A,3,,,,,,,,,,,,,2.5,1.2,2.2*27
$GPGSV,2,1,08,02,12,143,,05,37,104,22,12,56,082,30,21,31,299,29*70
$GPGSV,2,2,08,24,24,000,28,25,61,186,26,29,,,22,31,12,229,20*41
$BDGSV,1,1,00*68
$GNRMC,182037.000,A,1546.1085,S,04752.1784,W,3.97,347.10,091119,,,A*79
$GNVTG,347.10,T,,M,3.97,N,7.35,K,A*2E
$GNZDA,182037.000,09,11,2019,00,00*44
$GPTXT,01,01,01,ANTENNA OK*35
$GNGGA,182038.000,1546.1054,S,04752.1728,W,1,06,1.2,4.5,M,0.0,M,,*77
$GNGLL,1546.1054,S,04752.1728,W,182038.000,A,A*46
$GPGSA,A,3,05,21,12,25,24,31,,,,,,,2.5,1.2,2.2*30
$BDGSA,A,3,,,,,,,,,,,,,2.5,1.2,2.2*27
$GPGSV,2,1,08,02,12,143,,05,37,104,24,12,56,082,30,21,31,299,29*76
$GPGSV,2,2,08,24,24,000,28,25,61,186,26,29,,,22,31,12,229,20*41
$BDGSV,1,1,00*68
$GNRMC,182038.000,A,1546.1054,S,04752.1728,W,4.37,355.30,091119,,,A*70
$GNVTG,355.30,T,,M,4.37,N,8.09,K,A*22
$GNZDA,182038.000,09,11,2019,00,00*4B
$GPTXT,01,01,01,ANTENNA OK*35
$GNGGA,182039.000,1546.1024,S,04752.1668,W,1,06,1.2,4.5,M,0.0,M,,*74
$GNGLL,1546.1024,S,04752.1668,W,182039.000,A,A*45
$GPGSA,A,3,05,21,12,25,24,31,,,,,,,2.5,1.2,2.2*30
$BDGSA,A,3,,,,,,,,,,,,,2.5,1.2,2.2*27
$GPGSV,2,1,08,02,12,143,,05,37,104,24,12,56,082,30,21,31,299,29*76
$GPGSV,2,2,08,24,24,000,28,25,61,186,26,29,,,22,31,12,229,20*41
$BDGSV,1,1,00*68
$GNRMC,182039.000,A,1546.1024,S,04752.1668,W,4.63,1.68,091119,,,A*7D
$GNVTG,1.68,T,,M,4.63,N,8.57,K,A*27
$GNZDA,182039.000,09,11,2019,00,00*4A
$GPTXT,01,01,01,ANTENNA OK*35
$GNGGA,182040.000,1546.0996,S,04752.1610,W,1,06,1.2,4.5,M,0.0,M,,*74
$GNGLL,1546.0996,S,04752.1610,W,182040.000,A,A*45
$GPGSA,A,3,05,21,12,25,24,31,,,,,,,2.5,1.2,2.2*30
$BDGSA,A,3,,,,,,,,,,,,,2.5,1.2,2.2*27
$GPGSV,2,1,08,02,12,143,,05,37,104,24,12,56,082,30,21,31,299,29*76
$GPGSV,2,2,08,24,24,000,28,25,61,186,26,29,,,22,31,12,229,20*41
$BDGSV,1,1,00*68
$GNRMC,182040.000,A,1546.0996,S,04752.1610,W,9.92,5.33,091119,,,A*74
$GNVTG,5.33,T,,M,9.92,N,18.37,K,A*19
$GNZDA,182040.000,09,11,2019,00,00*44
$GPTXT,01,01,01,ANTENNA OK*35
$GNGGA,182041.000,1546.0996,S,04752.1598,W,1,06,1.2,4.5,M,0.0,M,,*76
$GNGLL,1546.0996,S,04752.1598,W,182041.000,A,A*47
$GPGSA,A,3,05,21,12,25,24,31,,,,,,,2.5,1.2,2.2*30
$BDGSA,A,3,,,,,,,,,,,,,2.5,1.2,2.2*27
$GPGSV,2,1,08,02,12,143,,05,37,104,24,12,56,082,30,21,31,299,29*76
$GPGSV,2,2,08,24,24,000,28,25,61,186,26,29,,,22,31,12,229,20*41
$BDGSV,1,1,00*68
$GNRMC,182041.000,A,1546.0996,S,04752.1598,W,0.00,5.33,091119,,,A*74
$GNVTG,5.33,T,,M,0.00,N,0.00,K,A*26
$GNZDA,182041.000,09,11,2019,00,00*45
$GPTXT,01,01,01,ANTENNA OK*35
$GNGGA,182042.000,1546.0997,S,04752.1589,W,1,06,1.2,4.5,M,0.0,M,,*74
$GNGLL,1546.0997,S,04752.1589,W,182042.000,A,A*45
$GPGSA,A,3,05,21,12,25,24,31,,,,,,,2.5,1.2,2.2*30
$BDGSA,A,3,,,,,,,,,,,,,2.5,1.2,2.2*27
$GPGSV,2,1,08,02,12,143,,05,37,104,24,12,56,082,30,21,31,299,29*76
$GPGSV,2,2,08,24,24,000,28,25,61,186,26,29,,,24,31,12,229,20*47
$BDGSV,1,1,00*68
$GNRMC,182042.000,A,1546.0997,S,04752.1589,W,0.00,5.33,091119,,,A*76
$GNVTG,5.33,T,,M,0.00,N,0.00,K,A*26
$GNZDA,182042.000,09,11,2019,00,00*46
$GPTXT,01,01,01,ANTENNA OK*35
$GNGGA,182043.000,1546.0995,S,04752.1577,W,1,06,1.2,4.5,M,0.0,M,,*76
$GNGLL,1546.0995,S,04752.1577,W,182043.000,A,A*47
$GPGSA,A,3,05,21,12,25,24,31,,,,,,,2.5,1.2,2.2*30
$BDGSA,A,3,,,,,,,,,,,,,2.5,1.2,2.2*27
$GPGSV,2,1,08,02,12,143,,05,37,104,24,12,56,082,30,21,31,299,29*76
$GPGSV,2,2,08,24,24,000,28,25,61,186,26,29,,,24,31,12,229,20*47
$BDGSV,1,1,00*68
$GNRMC,182043.000,A,1546.0995,S,04752.1577,W,0.00,5.33,091119,,,A*74
$GNVTG,5.33,T,,M,0.00,N,0.00,K,A*26
$GNZDA,182043.000,09,11,2019,00,00*47
$GPTXT,01,01,01,ANTENNA OK*35
$GNGGA,182044.000,1546.0996,S,04752.1567,W,1,06,1.2,4.5,M,0.0,M,,*73
$GNGLL,1546.0996,S,04752.1567,W,182044.000,A,A*42
$GPGSA,A,3,05,21,12,25,24,31,,,,,,,2.5,1.2,2.2*30
$BDGSA,A,3,,,,,,,,,,,,,2.5,1.2,2.2*27
$GPGSV,2,1,08,02,12,143,,05,37,104,24,12,56,082,30,21,31,299,29*76
$GPGSV,2,2,08,24,24,000,28,25,61,186,26,29,,,24,31,12,229,20*47
$BDGSV,1,1,00*68
$GNRMC,182044.000,A,1546.0996,S,04752.1567,W,0.00,5.33,091119,,,A*71
$GNVTG,5.33,T,,M,0.00,N,0.00,K,A*26
$GNZDA,182044.000,09,11,2019,00,00*40
$GPTXT,01,01,01,ANTENNA OK*35
$GNGGA,182045.000,1546.0995,S,04752.1556,W,1,06,1.2,4.4,M,0.0,M,,*72
$GNGLL,1546.0995,S,04752.1556,W,182045.000,A,A*42
$GPGSA,A,3,05,21,12,25,24,31,,,,,,,2.5,1.2,2.2*30
$BDGSA,A,3,,,,,,,,,,,,,2.5,1.2,2.2*27
$GPGSV,2,1,08,02,12,143,,05,37,104,24,12,56,082,30,21,31,299,29*76
$GPGSV,2,2,08,24,24,000,28,25,61,186,26,29,,,24,31,12,229,20*47
$BDGSV,1,1,00*68
$GNRMC,182045.000,A,1546.0995,S,04752.1556,W,0.00,5.33,091119,,,A*71
$GNVTG,5.33,T,,M,0.00,N,0.00,K,A*26
$GNZDA,182045.000,09,11,2019,00,00*41
$GPTXT,01,01,01,ANTENNA OK*35
$GNGGA,182046.000,1546.0995,S,04752.1545,W,1,06,1.2,4.4,M,0.0,M,,*73
$GNGLL,1546.0995,S,04752.1545,W,182046.000,A,A*43
$GPGSA,A,3,05,21,12,25,24,31,,,,,,,2.5,1.2,2.2*30
$BDGSA,A,3,,,,,,,,,,,,,2.5,1.2,2.2*27
$GPGSV,2,1,08,02,12,143,,05,37,104,24,12,56,082,30,21,31,299,29*76
$GPGSV,2,2,08,24,24,000,28,25,61,186,26,29,,,24,31,12,229,20*47
$BDGSV,1,1,00*68
$GNRMC,182046.000,A,1546.0995,S,04752.1545,W,0.00,5.33,091119,,,A*70
$GNVTG,5.33,T,,M,0.00,N,0.00,K,A*26
$GNZDA,182046.000,09,11,2019,00,00*42
$GPTXT,01,01,01,ANTENNA OK*35
$GNGGA,182047.000,1546.0986,S,04752.1529,W,1,06,1.2,4.5,M,0.0,M,,*7B
$GNGLL,1546.0986,S,04752.1529,W,182047.000,A,A*4A
$GPGSA,A,3,05,21,12,25,24,31,,,,,,,2.5,1.2,2.2*30
$BDGSA,A,3,,,,,,,,,,,,,2.5,1.2,2.2*27
$GPGSV,2,1,08,02,12,143,,05,37,104,24,12,56,082,30,21,31,299,29*76
$GPGSV,2,2,08,24,24,000,28,25,61,186,26,29,,,24,31,12,229,20*47
$BDGSV,1,1,00*68
$GNRMC,182047.000,A,1546.0986,S,04752.1529,W,4.60,3.69,091119,,,A*72
$GNVTG,3.69,T,,M,4.60,N,8.52,K,A*22
$GNZDA,182047.000,09,11,2019,00,00*43
$GPTXT,01,01,01,ANTENNA OK*35
$GNGGA,182048.000,1546.0974,S,04752.1508,W,1,06,1.2,4.6,M,0.0,M,,*79
$GNGLL,1546.0974,S,04752.1508,W,182048.000,A,A*4B
$GPGSA,A,3,05,21,12,25,24,31,,,,,,,2.5,1.2,2.2*30
$BDGSA,A,3,,,,,,,,,,,,,2.5,1.2,2.2*27
$GPGSV,2,1,08,02,12,143,,05,37,105,24,12,56,082,30,21,31,299,28*76
$GPGSV,2,2,08,24,24,000,28,25,61,186,26,29,,,24,31,12,229,20*47
$BDGSV,1,1,00*68
$GNRMC,182048.000,A,1546.0974,S,04752.1508,W,6.70,3.51,091119,,,A*7B
$GNVTG,3.51,T,,M,6.70,N,12.41,K,A*13
$GNZDA,182048.000,09,11,2019,00,00*4C
$GPTXT,01,01,01,ANTENNA OK*35
$GNGGA,182049.000,1546.0974,S,04752.1498,W,1,06,1.2,4.6,M,0.0,M,,*70
$GNGLL,1546.0974,S,04752.1498,W,182049.000,A,A*42
$GPGSA,A,3,05,21,12,25,24,31,,,,,,,2.5,1.2,2.2*30
$BDGSA,A,3,,,,,,,,,,,,,2.5,1.2,2.2*27
$GPGSV,2,1,08,02,12,143,,05,37,105,24,12,56,082,30,21,31,299,28*76
$GPGSV,2,2,08,24,24,000,28,25,61,186,26,29,,,23,31,12,229,20*40
$BDGSV,1,1,00*68
$GNRMC,182049.000,A,1546.0974,S,04752.1498,W,0.00,3.51,091119,,,A*73
$GNVTG,3.51,T,,M,0.00,N,0.00,K,A*24
$GNZDA,182049.000,09,11,2019,00,00*4D
$GPTXT,01,01,01,ANTENNA OK*35
$GNGGA,182050.000,1546.0974,S,04752.1489,W,1,06,1.2,4.6,M,0.0,M,,*78
$GNGLL,1546.0974,S,04752.1489,W,182050.000,A,A*4A
$GPGSA,A,3,05,21,12,25,24,31,,,,,,,2.5,1.2,2.2*30
$BDGSA,A,3,,,,,,,,,,,,,2.5,1.2,2.2*27
$GPGSV,2,1,08,02,12,143,,05,37,105,24,12,56,082,30,21,31,299,28*76
$GPGSV,2,2,08,24,24,000,28,25,61,186,26,29,,,23,31,12,229,20*40
$BDGSV,1,1,00*68
$GNRMC,182050.000,A,1546.0974,S,04752.1489,W,0.00,3.51,091119,,,A*7B
$GNVTG,3.51,T,,M,0.00,N,0.00,K,A*24
$GNZDA,182050.000,09,11,2019,00,00*45
$GPTXT,01,01,01,ANTENNA OK*35
$GNGGA,182051.000,1546.0974,S,04752.1479,W,1,06,1.2,4.6,M,0.0,M,,*76
$GNGLL,1546.0974,S,04752.1479,W,182051.000,A,A*44
$GPGSA,A,3,05,21,12,25,24,31,,,,,,,2.5,1.2,2.2*30
$BDGSA,A,3,,,,,,,,,,,,,2.5,1.2,2.2*27
$GPGSV,2,1,08,02,12,143,,05,37,105,21,12,56,082,30,21,31,299,28*73
$GPGSV,2,2,08,24,24,000,28,25,61,186,25,29,,,23,31,12,229,20*43
$BDGSV,1,1,00*68
$GNRMC,182051.000,A,1546.0974,S,04752.1479,W,0.00,3.51,091119,,,A*75
$GNVTG,3.51,T,,M,0.00,N,0.00,K,A*24
$GNZDA,182051.000,09,11,2019,00,00*44
$GPTXT,01,01,01,ANTENNA OK*35
$GNGGA,182052.000,1546.0983,S,04752.1472,W,1,06,1.2,4.5,M,0.0,M,,*75
$GNGLL,1546.0983,S,04752.1472,W,182052.000,A,A*44
$GPGSA,A,3,05,21,12,25,24,31,,,,,,,2.5,1.2,2.2*30
$BDGSA,A,3,,,,,,,,,,,,,2.5,1.2,2.2*27
$GPGSV,2,1,08,02,12,143,,05,37,105,21,12,56,082,30,21,31,299,28*73
$GPGSV,2,2,08,24,24,000,26,25,61,186,25,29,,,23,31,12,229,20*4D
$BDGSV,1,1,00*68
$GNRMC,182052.000,A,1546.0983,S,04752.1472,W,3.64,2.34,091119,,,A*76
$GNVTG,2.34,T,,M,3.64,N,6.75,K,A*23
$GNZDA,182052.000,09,11,2019,00,00*47
$GPTXT,01,01,01,ANTENNA OK*35
$GNGGA,182053.000,1546.0994,S,04752.1475,W,1,06,1.2,4.3,M,0.0,M,,*73
$GNGLL,1546.0994,S,04752.1475,W,182053.000,A,A*44
$GPGSA,A,3,05,21,12,25,24,31,,,,,,,2.5,1.2,2.2*30
$BDGSA,A,3,,,,,,,,,,,,,2.5,1.2,2.2*27
$GPGSV,2,1,08,02,12,143,,05,37,105,21,12,56,082,30,21,31,299,28*73
$GPGSV,2,2,08,24,24,000,26,25,61,186,25,29,,,20,31,12,229,20*4E
$BDGSV,1,1,00*68
$GNRMC,182053.000,A,1546.0994,S,04752.1475,W,3.43,0.02,091119,,,A*74
$GNVTG,0.02,T,,M,3.43,N,6.35,K,A*25
$GNZDA,182053.000,09,11,2019,00,00*46
$GPTXT,01,01,01,ANTENNA OK*35
$GNGGA,182054.000,1546.1010,S,04752.1479,W,1,06,1.2,4.2,M,0.0,M,,*7D
$GNGLL,1546.1010,S,04752.1479,W,182054.000,A,A*4B
$GPGSA,A,3,05,21,12,25,24,31,,,,,,,2.5,1.2,2.2*30
$BDGSA,A,3,,,,,,,,,,,,,2.5,1.2,2.2*27
$GPGSV,2,1,08,02,12,143,,05,37,105,21,12,56,082,30,21,31,299,28*73
$GPGSV,2,2,08,24,24,000,26,25,61,186,25,29,,,20,31,12,229,20*4E
$BDGSV,1,1,00*68
$GNRMC,182054.000,A,1546.1010,S,04752.1479,W,3.22,356.77,091119,,,A*7E
$GNVTG,356.77,T,,M,3.22,N,5.97,K,A*2B
$GNZDA,182054.000,09,11,2019,00,00*41
$GPTXT,01,01,01,ANTENNA OK*35
$GNGGA,182055.000,1546.1030,S,04752.1487,W,1,06,1.2,4.2,M,0.0,M,,*7F
$GNGLL,1546.1030,S,04752.1487,W,182055.000,A,A*49
$GPGSA,A,3,05,21,12,25,24,31,,,,,,,2.5,1.2,2.2*30
$BDGSA,A,3,,,,,,,,,,,,,2.5,1.2,2.2*27
$GPGSV,2,1,08,02,12,143,,05,37,105,21,12,56,082,30,21,31,299,28*73
$GPGSV,2,2,08,24,24,000,26,25,61,186,25,29,,,20,31,12,229,20*4E
$BDGSV,1,1,00*68
$GNRMC,182055.000,A,1546.1030,S,04752.1487,W,3.03,352.70,091119,,,A*7C
$GNVTG,352.70,T,,M,3.03,N,5.61,K,A*22
$GNZDA,182055.000,09,11,2019,00,00*40
$GPTXT,01,01,01,ANTENNA OK*35
$GNGGA,182056.000,1546.1052,S,04752.1499,W,1,06,1.2,4.2,M,0.0,M,,*77
$GNGLL,1546.1052,S,04752.1499,W,182056.000,A,A*41
$GPGSA,A,3,05,21,12,25,24,31,,,,,,,2.5,1.2,2.2*30
$BDGSA,A,3,,,,,,,,,,,,,2.5,1.2,2.2*27
$GPGSV,2,1,08,02,12,143,,05,37,105,21,12,56,082,30,21,31,299,28*73
$GPGSV,2,2,08,24,24,000,26,25,61,186,25,29,,,20,31,12,229,20*4E
$BDGSV,1,1,00*68
$GNRMC,182056.000,A,1546.1052,S,04752.1499,W,2.85,347.87,091119,,,A*77
$GNVTG,347.87,T,,M,2.85,N,5.27,K,A*23
$GNZDA,182056.000,09,11,2019,00,00*43
$GPTXT,01,01,01,ANTENNA OK*35
$GNGGA,182057.000,1546.1073,S,04752.1511,W,1,06,1.2,4.2,M,0.0,M,,*74
$GNGLL,1546.1073,S,04752.1511,W,182057.000,A,A*42
$GPGSA,A,3,05,21,12,25,24,31,,,,,,,2.5,1.2,2.2*30
$BDGSA,A,3,,,,,,,,,,,,,2.5,1.2,2.2*27
$GPGSV,2,1,08,02,12,143,,05,37,105,18,12,56,082,30,21,31,299,28*79
$GPGSV,2,2,08,24,24,000,27,25,61,186,25,29,,,20,31,12,229,20*4F
$BDGSV,1,1,00*68
$GNRMC,182057.000,A,1546.1073,S,04752.1511,W,2.68,342.29,091119,,,A*76
$GNVTG,342.29,T,,M,2.68,N,4.97,K,A*2B
$GNZDA,182057.000,09,11,2019,00,00*42
$GPTXT,01,01,01,ANTENNA OK*35
$GNGGA,182058.000,1546.1094,S,04752.1525,W,1,06,1.2,4.2,M,0.0,M,,*75
$GNGLL,1546.1094,S,04752.1525,W,182058.000,A,A*43
$GPGSA,A,3,05,21,12,25,24,31,,,,,,,2.5,1.2,2.2*30
$BDGSA,A,3,,,,,,,,,,,,,2.5,1.2,2.2*27
$GPGSV,2,1,08,02,12,143,,05,37,105,18,12,56,082,30,21,31,299,28*79
$GPGSV,2,2,08,24,24,000,27,25,61,186,25,29,,,20,31,12,229,20*4F
$BDGSV,1,1,00*68
$GNRMC,182058.000,A,1546.1094,S,04752.1525,W,2.54,335.93,091119,,,A*79
$GNVTG,335.93,T,,M,2.54,N,4.70,K,A*2C
$GNZDA,182058.000,09,11,2019,00,00*4D
$GPTXT,01,01,01,ANTENNA OK*35
$GNGGA,182059.000,1546.1115,S,04752.1536,W,1,06,1.2,4.2,M,0.0,M,,*7E
$GNGLL,1546.1115,S,04752.1536,W,182059.000,A,A*48
$GPGSA,A,3,05,21,12,25,24,31,,,,,,,2.5,1.2,2.2*30
$BDGSA,A,3,,,,,,,,,,,,,2.5,1.2,2.2*27
$GPGSV,2,1,08,02,12,143,,05,37,105,18,12,56,082,31,21,31,299,29*79
$GPGSV,2,2,08,24,24,000,27,25,61,186,24,29,,,22,31,12,229,20*4C
$BDGSV,1,1,00*68
$GNRMC,182059.000,A,1546.1115,S,04752.1536,W,5.88,321.86,091119,,,A*75
$GNVTG,321.86,T,,M,5.88,N,10.89,K,A*18
$GNZDA,182059.000,09,11,2019,00,00*4C
$GPTXT,01,01,01,ANTENNA OK*35
$GNGGA,182100.000,1546.1117,S,04752.1523,W,1,06,1.2,4.2,M,0.0,M,,*75
$GNGLL,1546.1117,S,04752.1523,W,182100.000,A,A*43
$GPGSA,A,3,05,21,12,25,24,31,,,,,,,2.5,1.2,2.2*30
$BDGSA,A,3,,,,,,,,,,,,,2.5,1.2,2.2*27
$GPGSV,2,1,08,02,12,143,,05,37,105,18,12,56,082,31,21,31,299,29*79
$GPGSV,2,2,08,24,24,000,27,25,61,186,24,29,,,22,31,12,229,20*4C
$BDGSV,1,1,00*68
$GNRMC,182100.000,A,1546.1117,S,04752.1523,W,0.00,321.86,091119,,,A*7B
$GNVTG,321.86,T,,M,0.00,N,0.00,K,A*2D
$GNZDA,182100.000,09,11,2019,00,00*41
$GPTXT,01,01,01,ANTENNA OK*35
$GNGGA,182101.000,1546.1118,S,04752.1513,W,1,06,1.2,4.2,M,0.0,M,,*78
$GNGLL,1546.1118,S,04752.1513,W,182101.000,A,A*4E
$GPGSA,A,3,05,21,12,25,24,31,,,,,,,2.5,1.2,2.2*30
$BDGSA,A,3,,,,,,,,,,,,,2.5,1.2,2.2*27
$GPGSV,2,1,08,02,12,143,,05,37,105,18,12,56,082,31,21,31,299,29*79
$GPGSV,2,2,08,24,24,000,27,25,61,186,24,29,,,22,31,12,229,20*4C
$BDGSV,1,1,00*68
$GNRMC,182101.000,A,1546.1118,S,04752.1513,W,0.00,321.86,091119,,,A*76
$GNVTG,321.86,T,,M,0.00,N,0.00,K,A*2D
$GNZDA,182101.000,09,11,2019,00,00*40
$GPTXT,01,01,01,ANTENNA OK*35
$GNGGA,182102.000,1546.1124,S,04752.1511,W,1,06,1.2,4.2,M,0.0,M,,*76
$GNGLL,1546.1124,S,04752.1511,W,182102.000,A,A*40
$GPGSA,A,3,05,21,12,25,24,31,,,,,,,2.5,1.2,2.2*30
$BDGSA,A,3,,,,,,,,,,,,,2.5,1.2,2.2*27
$GPGSV,2,1,08,02,12,143,,05,37,105,18,12,56,082,31,21,31,299,29*79
$GPGSV,2,2,08,24,24,000,28,25,61,186,24,29,,,22,31,12,229,20*43
$BDGSV,1,1,00*68
$GNRMC,182102.000,A,1546.1124,S,04752.1511,W,0.00,321.86,091119,,,A*78
$GNVTG,321.86,T,,M,0.00,N,0.00,K,A*2D
$GNZDA,182102.000,09,11,2019,00,00*43
$GPTXT,01,01,01,ANTENNA OK*35
$GNGGA,182103.000,1546.1127,S,04752.1506,W,1,06,1.2,4.3,M,0.0,M,,*73
$GNGLL,1546.1127,S,04752.1506,W,182103.000,A,A*44
$GPGSA,A,3,05,21,12,25,24,31,,,,,,,2.5,1.2,2.2*30
$BDGSA,A,3,,,,,,,,,,,,,2.5,1.2,2.2*27
$GPGSV,2,1,08,02,12,143,,05,37,105,18,12,56,082,31,21,31,299,29*79
$GPGSV,2,2,08,24,24,000,28,25,61,186,24,29,,,22,31,12,229,20*43
$BDGSV,1,1,00*68
$GNRMC,182103.000,A,1546.1127,S,04752.1506,W,0.00,321.86,091119,,,A*7C
$GNVTG,321.86,T,,M,0.00,N,0.00,K,A*2D
$GNZDA,182103.000,09,11,2019,00,00*42
$GPTXT,01,01,01,ANTENNA OK*35
$GNGGA,182104.000,1546.1129,S,04752.1501,W,1,06,1.2,4.3,M,0.0,M,,*7D
$GNGLL,1546.1129,S,04752.1501,W,182104.000,A,A*4A
$GPGSA,A,3,05,21,12,25,24,31,,,,,,,2.5,1.2,2.2*30
$BDGSA,A,3,,,,,,,,,,,,,2.5,1.2,2.2*27
$GPGSV,2,1,08,02,11,143,,05,37,105,18,12,56,082,31,21,31,299,29*7A
$GPGSV,2,2,08,24,24,000,28,25,61,186,24,29,,,22,31,12,229,20*43
$BDGSV,1,1,00*68
$GNRMC,182104.000,A,1546.1129,S,04752.1501,W,0.00,321.86,091119,,,A*72
$GNVTG,321.86,T,,M,0.00,N,0.00,K,A*2D
$GNZDA,182104.000,09,11,2019,00,00*45
$GPTXT,01,01,01,ANTENNA OK*35
$GNGGA,182105.000,1546.1130,S,04752.1494,W,1,06,1.2,4.3,M,0.0,M,,*79
$GNGLL,1546.1130,S,04752.1494,W,182105.000,A,A*4E
$GPGSA,A,3,05,21,12,25,24,31,,,,,,,2.5,1.2,2.2*30
$BDGSA,A,3,,,,,,,,,,,,,2.5,1.2,2.2*27
$GPGSV,2,1,08,02,11,143,,05,37,105,16,12,56,082,29,21,31,299,29*7D
$GPGSV,2,2,08,24,24,000,26,25,61,186,24,29,,,22,31,12,229,20*4D
$BDGSV,1,1,00*68
$GNRMC,182105.000,A,1546.1130,S,04752.1494,W,0.00,321.86,091119,,,A*76
$GNVTG,321.86,T,,M,0.00,N,0.00,K,A*2D
$GNZDA,182105.000,09,11,2019,00,00*44
$GPTXT,01,01,01,ANTENNA OK*35
$GNGGA,182106.000,1546.1132,S,04752.1490,W,1,06,1.2,4.3,M,0.0,M,,*7C
$GNGLL,1546.1132,S,04752.1490,W,182106.000,A,A*4B
$GPGSA,A,3,05,21,12,25,24,31,,,,,,,2.5,1.2,2.2*30
$BDGSA,A,3,,,,,,,,,,,,,2.5,1.2,2.2*27
$GPGSV,2,1,08,02,11,143,,05,37,105,16,12,56,082,29,21,31,299,27*73
$GPGSV,2,2,08,24,24,000,26,25,61,186,24,29,,,21,31,12,229,19*44
$BDGSV,1,1,00*68
$GNRMC,182106.000,A,1546.1132,S,04752.1490,W,0.00,321.86,091119,,,A*73
$GNVTG,321.86,T,,M,0.00,N,0.00,K,A*2D
$GNZDA,182106.000,09,11,2019,00,00*47
$GPTXT,01,01,01,ANTENNA OK*35
$GNGGA,182107.000,1546.1134,S,04752.1488,W,1,06,1.2,4.3,M,0.0,M,,*72
$GNGLL,1546.1134,S,04752.1488,W,182107.000,A,A*45
$GPGSA,A,3,05,21,12,25,24,31,,,,,,,2.5,1.2,2.2*30
$BDGSA,A,3,,,,,,,,,,,,,2.5,1.2,2.2*27
$GPGSV,2,1,08,02,11,143,,05,37,105,16,12,56,082,29,21,31,299,27*73
$GPGSV,2,2,08,24,24,000,26,25,61,186,24,29,,,21,31,12,229,19*44
$BDGSV,1,1,00*68
$GNRMC,182107.000,A,1546.1134,S,04752.1488,W,0.00,321.86,091119,,,A*7D
$GNVTG,321.86,T,,M,0.00,N,0.00,K,A*2D
$GNZDA,182107.000,09,11,2019,00,00*46
$GPTXT,01,01,01,ANTENNA OK*35
$GNGGA,182108.000,1546.1137,S,04752.1486,W,1,06,1.2,4.3,M,0.0,M,,*70
$GNGLL,1546.1137,S,04752.1486,W,182108.000,A,A*47
$GPGSA,A,3,05,21,12,25,24,31,,,,,,,2.5,1.2,2.2*30
$BDGSA,A,3,,,,,,,,,,,,,2.5,1.2,2.2*27
$GPGSV,2,1,08,02,11,143,,05,37,105,16,12,56,082,29,21,31,299,27*73
$GPGSV,2,2,08,24,24,000,26,25,61,186,24,29,,,21,31,12,229,19*44
$BDGSV,1,1,00*68
$GNRMC,182108.000,A,1546.1137,S,04752.1486,W,0.00,321.86,091119,,,A*7F
$GNVTG,321.86,T,,M,0.00,N,0.00,K,A*2D
$GNZDA,182108.000,09,11,2019,00,00*49
$GPTXT,01,01,01,ANTENNA OK*35
$GNGGA,182109.000,1546.1146,S,04752.1488,W,1,06,1.2,4.0,M,0.0,M,,*7A
$GNGLL,1546.1146,S,04752.1488,W,182109.000,A,A*4E
$GPGSA,A,3,05,21,12,25,24,31,,,,,,,2.5,1.2,2.2*30
$BDGSA,A,3,,,,,,,,,,,,,2.5,1.2,2.2*27
$GPGSV,2,1,08,02,11,143,,05,37,105,16,12,56,082,29,21,31,299,27*73
$GPGSV,2,2,08,24,24,000,26,25,61,186,24,29,,,21,31,12,229,19*44
$BDGSV,1,1,00*68
$GNRMC,182109.000,A,1546.1146,S,04752.1488,W,2.48,311.06,091119,,,A*73
$GNVTG,311.06,T,,M,2.48,N,4.59,K,A*20
$GNZDA,182109.000,09,11,2019,00,00*48
$GPTXT,01,01,01,ANTENNA OK*35
$GNGGA,182110.000,1546.1157,S,04752.1492,W,1,06,1.2,3.8,M,0.0,M,,*76
$GNGLL,1546.1157,S,04752.1492,W,182110.000,A,A*4D
$GPGSA,A,3,05,21,12,25,24,31,,,,,,,2.5,1.2,2.2*30
$BDGSA,A,3,,,,,,,,,,,,,2.5,1.2,2.2*27
$GPGSV,2,1,08,02,11,143,,05,37,105,16,12,56,082,29,21,31,299,27*73
$GPGSV,2,2,08,24,24,000,26,25,61,186,24,29,,,21,31,12,229,19*44
$BDGSV,1,1,00*68
$GNRMC,182110.000,A,1546.1157,S,04752.1492,W,2.52,298.46,091119,,,A*7F
$GNVTG,298.46,T,,M,2.52,N,4.67,K,A*22
$GNZDA,182110.000,09,11,2019,00,00*40
$GPTXT,01,01,01,ANTENNA OK*35
$GNGGA,182111.000,1546.1160,S,04752.1491,W,1,06,1.2,3.9,M,0.0,M,,*71
$GNGLL,1546.1160,S,04752.1491,W,182111.000,A,A*4B
$GPGSA,A,3,05,21,12,25,24,31,,,,,,,2.5,1.2,2.2*30
$BDGSA,A,3,,,,,,,,,,,,,2.5,1.2,2.2*27
$GPGSV,2,1,08,02,11,143,,05,37,105,16,12,56,082,29,21,31,299,28*7C
$GPGSV,2,2,08,24,24,000,26,25,61,186,24,29,,,21,31,12,229,19*44
$BDGSV,1,1,00*68
$GNRMC,182111.000,A,1546.1160,S,04752.1491,W,0.00,298.46,091119,,,A*7C
$GNVTG,298.46,T,,M,0.00,N,0.00,K,A*22
$GNZDA,182111.000,09,11,2019,00,00*41
$GPTXT,01,01,01,ANTENNA OK*35
$GNGGA,182112.000,1546.1162,S,04752.1491,W,1,06,1.2,3.9,M,0.0,M,,*70
$GNGLL,1546.1162,S,04752.1491,W,182112.000,A,A*4A
$GPGSA,A,3,05,21,12,25,24,31,,,,,,,2.5,1.2,2.2*30
$BDGSA,A,3,,,,,,,,,,,,,2.5,1.2,2.2*27
$GPGSV,2,1,08,02,11,143,,05,37,105,16,12,56,082,30,21,31,299,28*74
$GPGSV,2,2,08,24,24,000,26,25,61,186,24,29,,,21,31,12,229,19*44
$BDGSV,1,1,00*68
$GNRMC,182112.000,A,1546.1162,S,04752.1491,W,0.00,298.46,091119,,,A*7D
$GNVTG,298.46,T,,M,0.00,N,0.00,K,A*22
$GNZDA,182112.000,09,11,2019,00,00*42
$GPTXT,01,01,01,ANTENNA OK*35
$GNGGA,182113.000,1546.1164,S,04752.1491,W,1,06,1.2,3.9,M,0.0,M,,*77
$GNGLL,1546.1164,S,04752.1491,W,182113.000,A,A*4D
$GPGSA,A,3,05,21,12,25,24,31,,,,,,,2.5,1.2,2.2*30
$BDGSA,A,3,,,,,,,,,,,,,2.5,1.2,2.2*27
$GPGSV,2,1,08,02,11,143,,05,37,105,16,12,56,082,30,21,31,299,28*74
$GPGSV,2,2,08,24,24,000,26,25,61,186,24,29,,,21,31,12,229,17*4A
$BDGSV,1,1,00*68
$GNRMC,182113.000,A,1546.1164,S,04752.1491,W,0.00,298.46,091119,,,A*7A
$GNVTG,298.46,T,,M,0.00,N,0.00,K,A*22
$GNZDA,182113.000,09,11,2019,00,00*43
$GPTXT,01,01,01,ANTENNA OK*35
$GNGGA,182114.000,1546.1166,S,04752.1491,W,1,06,1.2,3.9,M,0.0,M,,*72
$GNGLL,1546.1166,S,04752.1491,W,182114.000,A,A*48
$GPGSA,A,3,05,21,12,25,24,31,,,,,,,2.5,1.2,2.2*30
$BDGSA,A,3,,,,,,,,,,,,,2.5,1.2,2.2*27
$GPGSV,2,1,08,02,11,143,,05,37,105,18,12,56,082,30,21,31,299,29*7B
$GPGSV,2,2,08,24,24,000,26,25,61,186,24,29,,,21,31,12,229,17*4A
$BDGSV,1,1,00*68
$GNRMC,182114.000,A,1546.1166,S,04752.1491,W,0.00,298.46,091119,,,A*7F
$GNVTG,298.46,T,,M,0.00,N,0.00,K,A*22
$GNZDA,182114.000,09,11,2019,00,00*44
$GPTXT,01,01,01,ANTENNA OK*35
$GNGGA,182115.000,1546.1173,S,04752.1497,W,1,06,1.2,3.9,M,0.0,M,,*71
$GNGLL,1546.1173,S,04752.1497,W,182115.000,A,A*4B
$GPGSA,A,3,05,21,12,25,24,31,,,,,,,2.5,1.2,2.2*30
$BDGSA,A,3,,,,,,,,,,,,,2.5,1.2,2.2*27
$GPGSV,2,1,08,02,11,143,,05,37,105,18,12,56,082,31,21,31,299,29*7A
$GPGSV,2,2,08,24,24,000,27,25,61,186,24,29,,,21,31,12,229,17*4B
$BDGSV,1,1,00*68
$GNRMC,182115.000,A,1546.1173,S,04752.1497,W,1.83,298.46,091119,,,A*76
$GNVTG,298.46,T,,M,1.83,N,3.39,K,A*21
$GNZDA,182115.000,09,11,2019,00,00*45
$GPTXT,01,01,01,ANTENNA OK*35
$GNGGA,182116.000,1546.1175,S,04752.1498,W,1,06,1.2,3.9,M,0.0,M,,*7B
$GNGLL,1546.1175,S,04752.1498,W,182116.000,A,A*41
$GPGSA,A,3,05,21,12,25,24,31,,,,,,,2.5,1.2,2.2*30
$BDGSA,A,3,,,,,,,,,,,,,2.5,1.2,2.2*27
$GPGSV,2,1,08,02,11,143,,05,37,105,18,12,56,082,31,21,31,299,29*7A
$GPGSV,2,2,08,24,24,000,27,25,61,186,24,29,,,21,31,12,229,17*4B
$BDGSV,1,1,00*68
$GNRMC,182116.000,A,1546.1175,S,04752.1498,W,0.00,298.46,091119,,,A*76
$GNVTG,298.46,T,,M,0.00,N,0.00,K,A*22
$GNZDA,182116.000,09,11,2019,00,00*46
$GPTXT,01,01,01,ANTENNA OK*35
$GNGGA,182117.000,1546.1177,S,04752.1499,W,1,06,1.2,3.9,M,0.0,M,,*79
$GNGLL,1546.1177,S,04752.1499,W,182117.000,A,A*43
$GPGSA,A,3,05,21,12,25,24,31,,,,,,,2.5,1.2,2.2*30
$BDGSA,A,3,,,,,,,,,,,,,2.5,1.2,2.2*27
$GPGSV,2,1,08,02,11,143,,05,37,105,21,12,56,082,31,21,31,299,30*78
$GPGSV,2,2,08,24,24,000,27,25,61,186,25,29,,,21,31,12,229,17*4A
$BDGSV,1,1,00*68
$GNRMC,182117.000,A,1546.1177,S,04752.1499,W,0.00,298.46,091119,,,A*74
$GNVTG,298.46,T,,M,0.00,N,0.00,K,A*22
$GNZDA,182117.000,09,11,2019,00,00*47
$GPTXT,01,01,01,ANTENNA OK*35
$GNGGA,182118.000,1546.1179,S,04752.1500,W,1,06,1.2,3.9,M,0.0,M,,*79
$GNGLL,1546.1179,S,04752.1500,W,182118.000,A,A*43
$GPGSA,A,3,05,21,12,25,24,31,,,,,,,2.5,1.2,2.2*30
$BDGSA,A,3,,,,,,,,,,,,,2.5,1.2,2.2*27
$GPGSV,2,1,08,02,11,143,,05,37,105,21,12,56,082,31,21,31,299,30*78
$GPGSV,2,2,08,24,24,000,27,25,61,186,25,29,,,20,31,12,229,17*4B
$BDGSV,1,1,00*68
$GNRMC,182118.000,A,1546.1179,S,04752.1500,W,0.00,298.46,091119,,,A*74
$GNVTG,298.46,T,,M,0.00,N,0.00,K,A*22
$GNZDA,182118.000,09,11,2019,00,00*48
$GPTXT,01,01,01,ANTENNA OK*35
$GNGGA,182119.000,1546.1179,S,04752.1503,W,1,06,1.2,4.1,M,0.0,M,,*74
$GNGLL,1546.1179,S,04752.1503,W,182119.000,A,A*41
$GPGSA,A,3,05,21,12,25,24,31,,,,,,,2.5,1.2,2.2*30
$BDGSA,A,3,,,,,,,,,,,,,2.5,1.2,2.2*27
$GPGSV,2,1,08,02,11,143,,05,37,105,21,12,56,082,30,21,31,299,30*79
$GPGSV,2,2,08,24,24,000,27,25,61,186,25,29,,,20,31,12,229,17*4B
$BDGSV,1,1,00*68
$GNRMC,182119.000,A,1546.1179,S,04752.1503,W,1.29,298.46,091119,,,A*7C
$GNVTG,298.46,T,,M,1.29,N,2.38,K,A*21
$GNZDA,182119.000,09,11,2019,00,00*49
$GPTXT,01,01,01,ANTENNA OK*35
$GNGGA,182120.000,1546.1177,S,04752.1503,W,1,06,1.2,4.2,M,0.0,M,,*73
$GNGLL,1546.1177,S,04752.1503,W,182120.000,A,A*45
$GPGSA,A,3,05,21,12,25,24,31,,,,,,,2.5,1.2,2.2*30
$BDGSA,A,3,,,,,,,,,,,,,2.5,1.2,2.2*27
$GPGSV,2,1,08,02,11,143,,05,37,105,21,12,56,082,30,21,31,299,28*70
$GPGSV,2,2,08,24,24,000,27,25,61,186,25,29,,,20,31,12,230,17*43
$BDGSV,1,1,00*68
$GNRMC,182120.000,A,1546.1177,S,04752.1503,W,1.45,298.46,091119,,,A*72
$GNVTG,298.46,T,,M,1.45,N,2.68,K,A*2E
$GNZDA,182120.000,09,11,2019,00,00*43
$GPTXT,01,01,01,ANTENNA OK*35
$GNGGA,182121.000,1546.1177,S,04752.1503,W,1,06,1.2,4.3,M,0.0,M,,*73
$GNGLL,1546.1177,S,04752.1503,W,182121.000,A,A*44
$GPGSA,A,3,05,21,12,25,24,31,,,,,,,2.5,1.2,2.2*30
$BDGSA,A,3,,,,,,,,,,,,,2.5,1.2,2.2*27
$GPGSV,2,1,08,02,11,143,,05,37,105,21,12,56,082,27,21,31,299,28*76
$GPGSV,2,2,08,24,24,000,27,25,61,186,25,29,,,20,31,12,230,17*43
$BDGSV,1,1,00*68
