     2.11           OBSERVATION DATA    M (MIXED)           RINEX VERSION / TYPE
CONVBIN demo5                           20191109 203112 UTC PGM / RUN BY / DATE 
log: rover_201911091804.log                                 COMMENT             
format: u-blox                                              COMMENT             
                                                            MARKER NAME         
                                                            MARKER NUMBER       
                                                            OBSERVER / AGENCY   
                                                            REC # / TYPE / VERS 
                                                            ANT # / TYPE        
  4119113.5341 -4554267.8973 -1722101.9985                  APPROX POSITION XYZ 
        0.0000        0.0000        0.0000                  ANTENNA: DELTA H/E/N
     1     1                                                WAVELENGTH FACT L1/2
     2    C1    L1                                          # / TYPES OF OBSERV 
  2019    11     9    18     4   58.9990053     GPS         TIME OF FIRST OBS   
  2019    11     9    19     6   39.9990053     GPS         TIME OF LAST OBS    
                                                            END OF HEADER       
 19 11  9 18  4 58.9990053  0 16R 9G15G 5G24R20R19G 2G31G25R21G12R 5
                                R16G20G29G21
  19114337.476 1 102069493.456 1
  24860179.188 9                
  22150947.936 1 116404030.836 1
  22307571.493 1 117227077.237 1
  20809178.709 1 111276116.660 1
  22634650.526 2 121080105.314 1
  23364557.532 1 122781509.312 1
  24687743.396 1 129734992.279 1
  21070128.809 1 110724312.746 1
  22822719.468 1 122128882.256 1
  20682135.259 1 108685352.290 1
  23235690.095 1 124208131.456 1
  20978536.013 1 112063413.539 1
  24972100.138 2 131229293.178 1
  22211552.019 1 116722506.786 1
  23272864.350 1 122299725.258 1
 19 11  9 18  4 59.9990053  0 16R 9G15G 5G24R20R19G 2G31G25R21G12R 5
                                R16G20G29G21
  19114190.789 1 102068708.505 1
  24860149.558 9               6
  22150960.780 1 116404097.274 1
  22308134.612 1 117230035.405 1
  20809372.511 1 111277153.811 1
  22635142.587 2 121082735.684 1
  23365198.304 1 122784877.950 1
  24687217.830 1 129732228.175 1
  21069697.475 1 110722045.729 1
  22822471.221 1 122127553.512 1
  20682149.498 1 108685423.489 1
  23235219.777 1 124205617.906 1
  20979202.227 1 112066972.601 1
  24971460.099 2 131225930.932 1
  22211493.107 1 116722197.235 1
  23272322.905 1 122296880.021 1
 19 11  9 18  5  0.9990053  0 16R 9G15G 5G24R20R19G 2G31G25R21G12R 5
                                R16G20G29G21
  19114043.998 1 102067924.424 1
  24860118.112 8 130640781.75134
  22150973.204 1 116404164.244 1
  22308697.835 1 117232993.723 1
  20809566.208 1 111278191.263 1
  22635634.474 2 121085365.894 1
  23365839.285 1 122788246.658 1
  24686691.531 1 129729464.452 1
  21069266.036 1 110719778.982 1
  22822223.219 1 122126225.180 1
  20682162.830 1 108685495.183 1
  23234749.808 1 124203104.336 1
  20979868.511 1 112070532.154 1
  24970820.269 2 131222568.497 1
  22211433.637 1 116721887.723 1
  23271781.843 1 122294035.082 1
 19 11  9 18  5  1.9990053  0 16R 9G15G 5G24R20R19G 2G31G25R21G12R 5
                                R16G20G29G21
  19113897.940 1 102067141.309 1
  24860084.817 4 130640596.39023
  22150986.013 1 116404231.816 1
  22309261.128 1 117235952.258 1
  20809760.080 1 111279229.011 1
  22636126.291 2 121087995.955 1
  23366480.441 1 122791615.523 1
  24686165.826 1 129726701.227 1
  21068834.632 1 110717512.590 1
  22821975.251 1 122124897.335 1
  20682176.685 1 108685567.434 1
  23234279.350 1 124200590.820 1
  20980535.389 1 112074092.286 1
  24970180.161 2 131219206.011 1
  22211374.655 1 116721578.269 1
  23271240.817 1 122291190.519 1
 19 11  9 18  5  2.9990053  0 16R 9G15G 5G24R20R19G 2G31G25R21G12R 5
                                R16G20G29G21
  19113751.463 1 102066358.925 1
  24860052.814 4 130640410.59023
  22150998.926 1 116404299.806 1
  22309824.037 1 117238910.821 1
  20809953.847 1 111280266.917 1
  22636618.143 2 121090625.795 1
  23367121.527 1 122794984.334 1
  24685639.807 1 129723938.256 1
  21068403.227 1 110715246.364 1
  22821727.179 1 122123569.754 1
  20682191.204 1 108685640.064 1
  23233809.206 1 124198077.127 1
  20981202.127 1 112077652.808 1
  24969540.471 2 131215843.266 1
  22211315.394 1 116721268.718 1
  23270699.721 1 122288346.140 1
 19 11  9 18  5  3.9990053  0 16R 9G15G 5G24R20R19G 2G31G25R21G12R 5
                                R16G20G29G21
  19113605.404 1 102065577.329 1
  24860018.821 4 130640224.42523
  22151011.699 1 116404368.249 1
  22310387.156 1 117241869.453 1
  20810147.719 1 111281304.972 1
  22637109.820 2 121093255.348 1
  23367762.543 1 122798353.150 1
  24685114.171 1 129721175.620 1
  21067972.277 1 110712980.334 1
  22821479.037 1 122122242.502 1
  20682204.641 1 108685713.095 1
  23233339.202 1 124195563.304 1
  20981868.411 1 112081213.736 1
  24968900.222 2 131212480.259 1
  22211256.517 1 116720959.064 1
  23270158.031 1 122285501.989 1
 19 11  9 18  5  4.9990053  0 16R 9G15G 5G24R20R19G 2G31G25R21G12R 5
                                R16G20G29G21
  19113459.206 1 102064796.579 1
  24859981.861 4 130640037.96023
  22151024.717 1 116404437.142 1
  22310950.239 1 117244828.188 1
  20810341.382 1 111282343.227 1
  22637601.253 2 121095884.689 1
  23368403.245 1 122801721.982 1
  24684588.676 1 129718413.303 1
  21067541.047 1 110710714.516 1
  22821231.069 1 122120915.623 1
  20682218.985 1 108685786.558 1
  23232869.337 1 124193049.390 1
  20982534.939 1 112084775.148 1
  24968260.357 1 131209117.037 1
  22211197.466 1 116720649.366 1
  23269616.725 1 122282658.088 1
 19 11  9 18  5  5.9990053  0 16R 9G15G 5G24R20R19G 2G31G25R21G12R 5
                                R16G20G29G21
  19113312.939 1 102064016.670 1
  24859946.263 4 130639851.14623
  22151037.910 1 116404506.565 1
  22311513.323 1 117247787.014 1
  20810535.847 1 111283381.706 1
  22638092.477 2 121098513.836 1
  23369044.087 1 122805090.852 1
  24684063.180 1 129715651.354 1
  21067110.131 1 110708448.974 1
  22820983.102 1 122119589.143 1
  20682233.120 1 108685860.476 1
  23232399.019 1 124190535.402 1
  20983201.607 1 112088336.982 1
  24967620.423 1 131205753.650 1
  22211138.763 1 116720339.636 1
  23269075.454 1 122279814.453 1
 19 11  9 18  5  6.9990053  0 16R 9G15G 5G24R20R19G 2G31G25R21G12R 5
                                R16G20G29G21
  19113166.845 1 102063237.633 1
  24859910.769 4 130639663.66513
  22151051.381 1 116404576.542 1
  22312076.825 1 117250746.023 1
  20810729.858 1 111284420.507 1
  22638584.224 2 121101142.819 1
  23369684.999 1 122808459.823 1
  24683537.335 1 129712889.846 1
  21066678.936 1 110706183.736 1
  22820735.204 1 122118263.113 1
  20682246.661 1 108685934.907 1
  23231928.631 1 124188021.423 1
  20983868.241 1 112091899.386 1
  24966980.524 1 131202390.121 1
  22211079.851 1 116720029.911 1
  23268534.114 1 122276971.140 1
 19 11  9 18  5  7.9990053  0 16R 9G15G 5G24R20R19G 2G31G25R21G12R 5
                                R16G20G29G21
  19113020.578 1 102062459.509 1
  24859877.125 2 130639476.401 2
  22151065.202 1 116404647.103 1
  22312640.188 1 117253705.221 1
  20810924.289 1 111285459.602 1
  22639075.901 2 121103771.679 1
  23370325.422 1 122811828.923 1
  24683010.897 1 129710128.792 1
  21066247.741 1 110703918.837 1
  22820487.236 1 122116937.512 1
  20682261.214 1 108686009.881 1
  23231458.313 1 124185507.459 1
  20984535.083 1 112095462.321 1
  24966340.275 1 131199026.503 1
  22211020.206 1 116719720.234 1
  23267993.227 1 122274128.197 1
 19 11  9 18  5  8.9990053  0 16R 9G15G 5G24R20R19G 2G31G25R21G12R 5
                                R16G20G29G21
  19112874.415 1 102061682.114 1
  24859847.564 4 130639288.666 3
  22151078.604 1 116404718.029 1
  22313203.202 1 117256664.405 1
  20811118.196 1 111286498.799 1
  22639567.369 2 121106400.255 1
  23370966.473 1 122815197.932 1
  24682485.156 1 129707367.941 1
  21065816.826 1 110701654.036 1
  22820239.408 1 122115612.121 1
  20682275.419 1 108686085.186 1
  23230987.820 1 124182993.326 1
  20985202.240 1 112099025.612 1
  24965700.341 1 131195662.560 1
  22210960.841 1 116719410.423 1
  23267452.165 1 122271285.396 1
 19 11  9 18  5  9.9990053  0 16R 9G15G 5G24R20R19G 2G31G25R21G12R 5
                                R16G20G29G21
  19112728.880 1 102060905.576 1
  24859810.325 8 130639100.657 3
  22151092.005 1 116404789.470 1
  22313766.320 1 117259623.732 1
  20811312.382 1 111287538.223 1
  22640059.047 2 121109028.620 1
  23371607.559 1 122818566.987 1
  24681959.730 1 129704607.487 1
  21065386.015 1 110699389.520 1
  22819991.301 1 122114287.157 1
  20682289.763 1 108686160.959 1
  23230517.432 1 124180479.127 1
  20985869.536 1 112102589.374 1
  24965060.162 1 131192298.414 1
  22210901.405 1 116719100.569 1
  23266911.139 1 122268442.873 1
 19 11  9 18  5 10.9990053  0 16R 9G15G 5G24R20R19G 2G31G25R21G12R 5
                                R16G20G29G21
  19112583.520 1 102060129.919 1
  24859766.386 4 130638912.408 2
  22151105.512 1 116404861.490 1
  22314329.369 1 117262583.271 1
  20811506.777 1 111288577.956 1
  22640550.619 2 121111656.852 1
  23372248.366 1 122821936.177 1
  24681434.304 1 129701847.470 1
  21064954.960 1 110697125.324 1
  22819743.613 1 122112962.675 1
  20682304.421 1 108686237.271 1
  23230046.625 1 124177964.929 1
  20986536.554 1 112106153.671 1
  24964419.914 1 131188934.195 1
  22210842.074 1 116718790.767 1
  23266370.007 1 122265600.701 1
 19 11  9 18  5 11.9990053  0 16R 9G15G 5G24R20R19G 2G31G25R21G12R 5
                                R16G20G29G21
  19112438.473 1 102059355.032 1
  24859728.658 4 130638723.803 3
  22151119.367 1 116404933.934 1
  22314892.662 1 117265542.837 1
  20811701.242 1 111289617.814 1
  22641041.703 2 121114284.832 1
  23372889.312 1 122825305.319 1
  24680908.739 1 129699087.781 1
  21064524.114 1 110694861.296 1
  22819495.854 1 122111638.479 1
  20682317.893 1 108686313.965 1
  23229576.342 1 124175450.581 1
  20987204.024 1 112109718.369 1
  24963779.630 1 131185569.701 1
  22210782.848 1 116718480.852 1
  23265829.051 1 122262758.734 1
 19 11  9 18  5 12.9990053  0 16R 9G15G 5G24R20R19G 2G31G25R21G12R 5
                                R16G20G29G21
  19112293.706 1 102058581.208 1
  24859702.762 4 130638535.025 3
  22151133.013 1 116405007.064 1
  22315455.955 1 117268502.712 1
  20811896.301 1 111290658.087 1
  22641532.997 2 121116912.799 1
  23373530.748 1 122828674.696 1
  24680383.313 1 129696328.606 1
  21064093.303 1 110692597.724 1
  22819248.026 1 122110314.825 1
  20682332.970 1 108686391.295 1
  23229106.547 1 124172936.353 1
  20987871.041 1 112113283.722 1
  24963139.800 1 131182205.186 1
  22210723.832 1 116718171.072 1
  23265288.443 1 122259917.217 1
 19 11  9 18  5 13.9990053  0 16R 9G15G 5G24R20R19G 2G31G25R21G12R 5
                                R16G20G29G21
  19112149.253 1 102057808.153 1
  24859667.164 8 130638345.993 4
  22151147.253 1 116405080.612 1
  22316019.213 1 117271462.622 1
  20812091.115 1 111291698.501 1
  22642023.906 2 121119540.494 1
  23374172.113 1 122832044.029 1
  24679858.201 1 129693569.718 1
  21063662.806 1 110690334.293 1
  22818999.989 1 122108991.480 1
  20682347.733 1 108686469.012 1
  23228636.438 1 124170421.961 1
  20988538.547 1 112116849.447 1
  24962499.657 1 131178840.429 1
  22210665.164 1 116717861.199 1
  23264747.696 1 122257075.895 1
 19 11  9 18  5 14.9990053  0 16R 9G15G 5G24R20R19G 2G31G25R21G12R 5
                                R16G20G29G21
  19112005.010 1 102057035.809 1
  24859629.820 8 130638156.317 4
  22151161.038 1 116405154.602 1
  22316582.332 1 117274422.550 1
  20812285.929 1 111292739.063 1
  22642515.235 2 121122167.910 1
  23374813.548 1 122835413.346 1
  24679332.949 1 129690811.126 1
  21063232.100 1 110688071.068 1
  22818752.475 1 122107668.455 1
  20682362.426 1 108686547.117 1
  23228165.666 1 124167907.468 1
  20989206.088 1 112120415.578 1
  24961859.443 1 131175475.399 1
  22210606.462 1 116717551.231 1
  23264206.913 1 122254234.789 1
 19 11  9 18  5 15.9990053  0 16R 9G15G 5G24R20R19G 2G31G25R21G12R 5
                                R16G20G29G21
  19111860.766 1 102056264.393 1
  24859592.407 4 130637966.479 4
  22151175.313 1 116405229.131 1
  22317145.765 1 117277382.598 1
  20812480.918 1 111293779.878 1
  22643006.005 2 121124795.208 1
  23375455.192 1 122838782.721 1
  24678808.151 1 129688052.957 1
  21062801.498 1 110685808.130 1
  22818505.555 1 122106345.845 1
  20682377.538 1 108686625.713 1
  23227695.208 1 124165392.917 1
  20989873.419 1 112123982.191 1
  24961219.020 1 131172110.221 1
  22210547.480 1 116717241.250 1
  23263666.026 1 122251393.982 1
 19 11  9 18  5 16.9990053  0 16R 9G15G 5G24R20R19G 2G31G25R21G12R 5
                                R16G20G29G21
  19111716.732 1 102055493.949 1
  24859554.121 4 130637776.458 5
  22151189.761 1 116405304.259 1
  22317708.918 1 117280342.890 1
  20812675.104 1 111294821.052 1
  22643496.635 2 121127422.313 1
  23376096.453 1 122842152.254 1
  24678283.423 1 129685295.226 1
  21062370.652 1 110683545.548 1
  22818258.669 1 122105023.730 1
  20682391.916 1 108686704.891 1
  23227224.471 1 124162878.435 1
  20990540.890 1 112127549.425 1
  24960578.527 1 131168744.999 1
  22210488.463 1 116716931.341 1
  23263125.523 1 122248553.567 1
 19 11  9 18  5 17.9990053  0 16R 9G15G 5G24R20R19G 2G31G25R21G12R 5
                                R16G20G29G21
  19111572.908 1 102054724.155 1
  24859517.999 9                
  22151203.757 1 116405379.752 1
  22318271.897 1 117283303.159 1
  20812869.813 1 111295862.300 1
  22643987.684 2 121130049.155 1
  23376737.679 1 122845521.680 1
  24677758.381 1 129682537.732 1
  21061940.225 1 110681283.068 1
  22818011.644 1 122103701.857 1
  20682407.412 1 108686784.387 1
  23226754.118 1 124160363.725 1
  20991208.151 1 112131116.962 1
  24959938.139 1 131165379.374 1
  22210429.307 1 116716621.270 1
  23262585.195 1 122245713.283 1
 19 11  9 18  5 18.9990053  0 16R 9G15G 5G24R20R19G 2G31G25R21G12R 5
                                R16G20G29G21
  19111428.804 1 102053955.362 1
  24859480.272 9                
  22151218.380 1 116405455.877 1
  22318835.330 1 117286263.660 1
  20813064.558 1 111296903.917 1
  22644478.489 2 121132675.896 1
  23377378.974 1 122848891.283 1
  24677233.862 1 129679780.758 1
  21061509.833 1 110679020.991 1
  22817764.514 1 122102380.468 1
  20682422.454 1 108686864.469 1
  23226283.381 1 124157849.080 1
  20991875.866 1 112134685.111 1
  24959297.751 1 131162013.770 1
  22210370.849 1 116716311.278 1
  23262044.552 1 122242873.403 1
 19 11  9 18  5 19.9990053  0 16R 9G15G 5G24R20R19G 2G31G25R21G12R 5
                                R16G20G29G21
  19111284.839 1 102053187.533 1
  24859441.602 9                
  22151232.759 1 116405532.629 1
  22319398.832 1 117289224.436 1
  20813259.931 1 111297945.897 1
  22644969.224 2 121135302.592 1
  23378020.200 1 122852261.064 1
  24676709.134 1 129677024.270 1
  21061079.615 1 110676759.287 1
  22817517.907 1 122101059.599 1
  20682437.496 1 108686945.145 1
  23225812.539 1 124155334.507 1
  20992543.582 1 112138253.861 1
  24958657.258 1 131158648.083 1
  22210311.972 1 116716001.394 1
  23261504.328 1 122240033.930 1
 19 11  9 18  5 20.9990053  0 16R 9G15G 5G24R20R19G 2G31G25R21G12R 5
                                R16G20G29G21
  19111141.329 1 102052420.535 1
  24859403.247 9                
  22151247.766 1 116405609.878 1
  22319962.125 1 117292185.306 1
  20813454.780 1 111298988.102 1
  22645459.924 1 121137929.044 1
  23378661.391 1 122855630.881 1
  24676184.476 1 129674268.127 1
  21060649.397 1 110674497.825 1
  22817271.440 1 122099739.128 1
  20682453.271 1 108687026.268 1
  23225341.697 1 124152819.834 1
  20993211.576 1 112141823.069 1
  24958016.766 1 131155282.206 1
  22210253.234 1 116715691.478 1
  23260963.895 1 122237194.727 1
 19 11  9 18  5 21.9990053  0 16R 9G15G 5G24R20R19G 2G31G25R21G12R 5
                                R16G20G29G21
  19110997.958 1 102051654.426 1
  24859364.577 9                
  22151262.773 1 116405687.689 1
  22320525.488 1 117295146.385 1
  20813649.943 1 111300030.594 1
  22645950.868 2 121140555.375 1
  23379302.686 1 122859000.793 1
  24675659.853 1 129671512.430 1
  21060219.354 1 110672236.682 1
  22817024.904 1 122098419.081 1
  20682468.348 1 108687107.904 1
  23224870.751 1 124150305.174 1
  20993879.919 1 112145392.809 1
  24957376.377 1 131151916.209 1
  22210194.462 1 116715381.576 1
  23260423.985 1 122234355.849 1
 19 11  9 18  5 22.9990053  0 16R 9G15G 5G24R20R19G 2G31G25R21G12R 5
                                R16G20G29G21
  19110854.761 1 102050889.107 1
  24859324.721 9                
  22151277.536 1 116405765.940 1
  22321088.781 1 117298107.493 1
  20813845.106 1 111301073.208 1
  22646441.708 2 121143181.435 1
  23379944.191 1 122862370.675 1
  24675135.474 1 129668757.045 1
  21059789.381 1 110669975.720 1
  22816778.332 1 122097099.332 1
  20682484.438 1 108687189.932 1
  23224400.118 1 124147790.406 1
  20994548.193 1 112148962.928 1
  24956735.920 1 131148549.968 1
  22210135.794 1 116715071.582 1
  23259883.727 1 122231517.184 1
 19 11  9 18  5 23.9990053  0 16R 9G15G 5G24R20R19G 2G31G25R21G12R 5
                                R16G20G29G21
  19110711.355 1 102050124.689 1
  24859288.843 9                
  22151292.753 1 116405844.742 1
  22321652.388 1 117301068.780 1
  20814039.955 1 111302116.148 1
  22646932.897 2 121145807.378 1
  23380585.591 1 122865740.656 1
  24674611.339 1 129666002.044 1
  21059359.582 1 110667715.063 1
  22816532.109 1 122095780.008 1
  20682499.654 1 108687272.472 1
  23223929.556 1 124145275.668 1
  20995216.362 1 112152533.529 1
  24956095.497 2 131145183.606 1
  22210077.057 1 116714761.605 1
  23259343.852 1 122228678.844 1
 19 11  9 18  5 24.9990053  0 16R 9G15G 5G24R20R19G 2G31G25R21G12R 5
                                R16G20G29G21
  19110568.194 1 102049361.155 1
  24859253.559 9                
  22151307.760 1 116405924.078 1
  22322215.925 1 117304030.200 1
  20814234.804 1 111303159.305 1
  22647423.737 2 121148433.127 1
  23381226.852 1 122869110.716 1
  24674087.379 1 129663247.476 1
  21058929.330 1 110665454.695 1
  22816285.643 1 122094461.120 1
  20682515.569 1 108687355.503 1
  23223458.923 1 124142760.881 1
  20995884.949 1 112156104.672 1
  24955454.550 1 131141817.087 1
  22210018.319 1 116714451.624 1
  23258803.802 1 122225840.818 1
 19 11  9 18  5 25.9990053  0 16R 9G15G 5G24R20R19G 2G31G25R21G12R 5
                                R16G20G29G21
  19110425.172 1 102048598.553 1
  24859215.971 9                
  22151322.872 1 116406004.044 1
  22322779.393 1 117306991.838 1
  20814429.654 1 111304202.822 1
  22647914.437 2 121151058.813 1
  23381868.287 1 122872480.936 1
  24673563.768 1 129660493.395 1
  21058499.566 1 110663194.720 1
  22816039.315 1 122093142.752 1
  20682531.693 1 108687439.114 1
  23222988.466 1 124140246.140 1
  20996553.746 1 112159676.416 1
  24954813.848 2 131138450.482 1
  22209959.757 1 116714141.740 1
  23258263.613 1 122223003.175 1
 19 11  9 18  5 26.9990053  0 16R 9G15G 5G24R20R19G 2G31G25R21G12R 5
                                R16G20G29G21
  19110282.255 1 102047836.831 1
  24859181.001 9                
  22151338.228 1 116406084.525 1
  22323342.965 1 117309953.630 1
  20814624.677 1 111305246.564 1
  22648405.137 2 121153684.310 1
  23382509.687 1 122875851.221 1
  24673040.191 1 129657739.702 1
  21058069.906 1 110660935.001 1
  22815792.709 1 122091824.800 1
  20682547.363 1 108687523.218 1
  23222517.624 1 124137731.360 1
  20997222.857 1 112163248.646 1
  24954173.250 1 131135083.730 1
  22209901.159 1 116713831.844 1
  23257723.878 1 122220165.830 1
 19 11  9 18  5 27.9990053  0 16R 9G15G 5G24R20R19G 2G31G25R21G12R 5
                                R16G20G29G21
  19110139.442 1 102047075.963 1
  24859144.146 9                
  22151353.654 1 116406165.510 1
  22323906.747 1 117312915.541 1
  20814819.561 1 111306290.544 1
  22648896.011 2 121156309.610 1
  23383151.157 1 122879221.540 1
  24672516.685 1 129654986.390 1
  21057640.073 1 110658675.536 1
  22815546.486 1 122090507.192 1
  20682564.255 1 108687607.771 1
  23222046.608 1 124135216.488 1
  20997892.143 1 112166821.327 1
  24953532.443 1 131131716.782 1
  22209842.526 1 116713521.893 1
  23257183.934 1 122217328.763 1
 19 11  9 18  5 28.9990053  0 15R 9G 5G24R20R19G 2G31G25R21G12R 5R16
                                G20G29G21
  19109997.188 1 102046315.978 1
  22151369.115 1 116406247.017 1
  22324470.424 1 117315877.571 1
  20815014.759 1 111307334.770 1
  22649386.712 2 121158934.743 1
  23383792.697 1 122882591.922 1
  24671993.143 1 129652233.435 1
  21057209.925 1 110656416.353 1
  22815300.333 1 122089189.956 1
  20682579.995 1 108687692.798 1
  23221575.696 1 124132701.558 1
  20998561.324 1 112170394.469 1
  24952891.741 1 131128349.704 1
  22209783.789 1 116713211.958 1
  23256644.198 1 122214491.996 1
 19 11  9 18  5 29.9990053  0 15R 9G 5G24R20R19G 2G31G25R21G12R 5R16
                                G20G29G21
  19109854.864 1 102045556.859 1
  22151384.541 1 116406329.066 1
  22325034.275 1 117318839.763 1
  20815209.923 1 111308379.261 1
  22649877.202 2 121161559.694 1
  23384434.132 1 122885962.387 1
  24671469.462 1 129649480.905 1
  21056780.021 1 110654157.453 1
  22815054.285 1 122087873.132 1
  20682597.026 1 108687778.330 1
  23221104.924 1 124130186.638 1
  20999230.784 1 112173968.110 1
  24952251.179 1 131124982.470 1
  22209725.051 1 116712902.019 1
  23256104.254 1 122211655.528 1
 19 11  9 18  5 30.9990053  0 15R 9G 5G24R20R19G 2G31G25R21G12R 5R16
                                G20G29G21
  19109713.238 1 102044798.633 1
  22151400.176 1 116406411.663 1
  22325598.161 1 117321802.111 1
  20815405.051 1 111309424.038 1
  22650368.077 2 121164184.559 1
  23385075.323 1 122889332.958 1
  24670945.607 1 129646728.786 1
  21056350.292 1 110651898.871 1
  22814808.098 1 122086556.801 1
  20682613.081 1 108687864.389 1
  23220634.361 1 124127671.720 1
  20999900.175 1 112177542.306 1
  24951610.267 2 131121615.098 1
  22209665.860 1 116712592.118 1
  23255564.623 1 122208819.403 1
 19 11  9 18  5 31.9990053  0 15R 9G 5G24R20R19G 2G31G25R21G12R 5R16
                                G20G29G21
  19109571.472 1 102044041.145 1
  22151416.056 1 116406494.669 1
  22326161.629 1 117324764.475 1
  20815600.214 1 111310468.918 1
  22650858.603 2 121166809.094 1
  23385716.619 1 122892703.454 1
  24670421.821 1 129643976.953 1
  21055920.284 1 110649640.440 1
  22814561.945 1 122085240.771 1
  20682629.972 1 108687950.785 1
  23220163.694 1 124125156.643 1
  21000569.321 1 112181116.837 1
  24950969.460 1 131118247.422 1
  22209606.529 1 116712282.065 1
  23255025.132 1 122205983.443 1
 19 11  9 18  5 32.9990053  0 15R 9G 5G24R20R19G 2G31G25R21G12R 5R16
                                G20G29G21
  19109429.916 1 102043284.572 1
  22151431.726 1 116406578.235 1
  22326725.480 1 117327727.025 1
  20815795.552 1 111311514.120 1
  22651349.687 2 121169433.486 1
  23386357.984 1 122896074.067 1
  24669898.105 1 129641225.544 1
  21055490.415 1 110647382.327 1
  22814315.827 1 122083925.165 1
  20682647.074 1 108688037.718 1
  23219693.166 1 124122641.527 1
  21001238.606 1 112184691.927 1
  24950328.549 1 131114879.645 1
  22209547.373 1 116711972.044 1
  23254485.572 1 122203147.831 1
 19 11  9 18  5 33.9990053  0 16R 9G15G 5G24R20R19G 2G31G25R21G12R 5
                                R16G20G29G21
  19109288.884 1 102042528.784 1
  24858928.985 9                
  22151448.095 1 116406662.266 1
  22327289.367 1 117330689.627 1
  20815991.308 1 111312559.451 1
  22651840.282 2 121172057.662 1
  23386999.175 1 122899444.655 1
  24669374.319 1 129638474.452 1
  21055060.791 1 110645124.420 1
  22814070.093 1 122082609.872 1
  20682663.616 1 108688125.057 1
  23219222.639 1 124120126.318 1
  21001908.346 1 112188267.407 1
  24949687.637 1 131111511.615 1
  22209488.461 1 116711661.943 1
  23253946.604 1 122200312.428 1
 19 11  9 18  5 34.9990053  0 16R 9G15G 5G24R20R19G 2G31G25R21G12R 5
                                R16G20G29G21
  19109147.676 1 102041773.844 1
  24858894.643 9                
  22151464.219 1 116406746.777 1
  22327853.044 1 117333652.308 1
  20816186.751 1 111313604.970 1
  22652330.459 2 121174681.561 1
  23387640.645 1 122902815.260 1
  24668851.057 1 129635723.716 1
  21054631.341 1 110642866.749 1
  22813824.185 1 122081294.907 1
  20682680.369 1 108688212.826 1
  23218751.902 1 124117611.020 1
  21002578.225 1 112191843.323 1
  24949046.411 1 131108143.408 1
  22209429.375 1 116711351.802 1
  23253407.183 1 122197477.285 1
 19 11  9 18  5 35.9990053  0 16R 9G15G 5G24R20R19G 2G31G25R21G12R 5
                                R16G20G29G21
  19109006.679 1 102041019.786 1
  24858860.894 9                
  22151480.657 1 116406831.881 1
  22328417.174 1 117336615.188 1
  20816382.193 1 111314650.802 1
  22652820.914 2 121177305.322 1
  23388282.115 1 122906185.989 1
  24668327.900 1 129632973.388 1
  21054201.786 1 110640609.398 1
  22813578.555 1 122079980.397 1
  20682696.911 1 108688301.125 1
  23218280.990 1 124115095.721 1
  21003248.138 1 112195419.785 1
  24948405.500 1 131104775.071 1
  22209369.974 1 116711041.682 1
  23252867.832 1 122194642.479 1
 19 11  9 18  5 36.9990053  0 16R 9G15G 5G24R20R19G 2G31G25R21G12R 5
                                R16G20G29G21
  19108865.297 1 102040266.550 1
  24858821.387 9                
  22151496.676 1 116406917.457 1
  22328980.921 1 117339578.174 1
  20816577.566 1 111315696.835 1
  22653311.335 2 121179928.896 1
  23388923.620 1 122909556.731 1
  24667804.777 1 129630223.439 1
  21053772.302 1 110638352.286 1
  22813333.066 1 122078666.285 1
  20682714.501 1 108688389.869 1
  23217810.009 1 124112580.366 1
  21003918.017 1 112198996.697 1
  24947764.099 1 131101406.567 1
  22209310.818 1 116710731.508 1
  23252328.445 1 122191807.952 1
 19 11  9 18  5 37.9990053  0 16R 9G15G 5G24R20R19G 2G31G25R21G12R 5
                                R16G20G29G21
  19108724.264 1 102039514.303 1
  24858780.937 9                
  22151513.079 1 116407003.661 1
  22329544.842 1 117342541.400 1
  20816773.218 1 111316743.198 1
  22653801.861 2 121182552.399 1
  23389565.264 1 122912927.634 1
  24667282.213 1 129627473.970 1
  21053342.922 1 110636095.545 1
  22813087.681 1 122077352.660 1
  20682731.079 1 108688479.186 1
  23217339.027 1 124110065.064 1
  21004588.071 1 112202574.215 1
  24947123.048 1 131098037.948 1
  22209251.522 1 116710421.425 1
  23251789.234 1 122188973.811 1
 19 11  9 18  5 38.9990053  0 16R 9G15G 5G24R20R19G 2G31G25R21G12R 5
                                R16G20G29G21
  19108583.476 1 102038762.887 1
  24858744.257 9                
  22151529.552 1 116407090.365 1
  22330108.938 1 117345504.761 1
  20816969.393 1 111317789.790 1
  22654292.107 2 121185175.685 1
  23390206.769 1 122916298.577 1
  24666759.648 1 129624724.884 1
  21052913.402 1 110633839.065 1
  22812842.261 1 122076039.383 1
  20682748.459 1 108688568.966 1
  23216868.639 1 124107549.695 1
  21005257.985 1 112206152.214 1
  24946481.997 1 131094669.170 1
  22209192.296 1 116710111.311 1
  23251249.987 1 122186139.936 1
 19 11  9 18  5 39.9990053  0 16R 9G15G 5G24R20R19G 2G31G25R21G12R 5
                                R16G20G29G21
  19108442.688 1 102038012.382 1
  24858709.984 9                
  22151546.235 1 116407177.619 1
  22330672.789 1 117348468.300 1
  20817165.324 1 111318836.680 1
  22654782.493 2 121187798.839 1
  23390848.274 1 122919669.626 1
  24666236.875 1 129621976.222 1
  21052484.371 1 110631582.903 1
  22812597.085 1 122074726.558 1
  20682765.177 1 108688659.278 1
  23216397.867 1 124105034.334 1
  21005928.038 1 112209730.718 1
  24945840.841 1 131091300.277 1
  22209133.000 1 116709801.237 1
  23250710.671 1 122183306.396 1
 19 11  9 18  5 40.9990053  0 16R 9G15G 5G24R20R19G 2G31G25R21G12R 5
                                R16G20G29G21
  19108302.144 1 102037262.743 1
  24858676.934 9                
  22151563.510 1 116407265.400 1
  22331236.536 1 117351431.929 1
  20817361.046 1 111319883.789 1
  22655272.705 2 121190421.801 1
  23391490.163 1 122923040.726 1
  24665714.031 1 129619227.928 1
  21052055.130 1 110629327.008 1
  22812351.770 1 122073414.119 1
  20682782.941 1 108688750.060 1
  23215927.095 1 124102518.885 1
  21006598.057 1 112213309.683 1
  24945199.755 1 131087931.223 1
  22209073.530 1 116709491.136 1
  23250171.808 1 122180473.169 1
 19 11  9 18  5 41.9990053  0 16R 9G15G 5G24R20R19G 2G31G25R21G12R 5
                                R16G20G29G21
  19108161.565 1 102036513.898 1
  24858640.777 9                
  22151580.018 1 116407353.631 1
  22331800.457 1 117354395.627 1
  20817556.942 1 111320931.088 1
  22655762.986 2 121193044.536 1
  23392131.563 1 122926411.821 1
  24665191.502 1 129616479.970 1
  21051626.029 1 110627071.319 1
  22812106.629 1 122072102.054 1
  20682799.903 1 108688841.265 1
  23215456.777 1 124100003.355 1
  21007268.110 1 112216889.056 1
  24944558.564 1 131084561.923 1
  22209014.443 1 116709180.979 1
  23249632.666 1 122177640.176 1
 19 11  9 18  5 42.9990053  0 16R 9G15G 5G24R20R19G 2G31G25R21G12R 5
                                R16G20G29G21
  19108021.090 1 102035765.844 1
  24858600.816 9                
  22151597.154 1 116407442.327 1
  22332364.344 1 117357359.394 1
  20817753.082 1 111321978.561 1
  22656253.233 2 121195667.038 1
  23392772.998 1 122929782.931 1
  24664669.043 1 129613732.319 1
  21051196.615 1 110624815.851 1
  22811861.419 1 122070790.325 1
  20682817.318 1 108688932.881 1
  23214986.075 1 124097487.718 1
  21007938.059 1 112220468.871 1
  24943917.443 1 131081192.397 1
  22208955.043 1 116708870.727 1
  23249093.838 1 122174807.411 1
 19 11  9 18  5 43.9990053  0 16R 9G15G 5G24R20R19G 2G31G25R21G12R 5
                                R16G20G29G21
  19107880.791 1 102035018.710 1
  24858560.576 9                
  22151614.081 1 116407531.582 1
  22332928.474 1 117360323.348 1
  20817949.083 1 111323026.309 1
  22656743.514 2 121198289.393 1
  23393414.119 1 122933154.125 1
  24664146.967 1 129610985.127 1
  21050767.583 1 110622560.693 1
  22811616.418 1 122069479.032 1
  20682835.082 1 108689025.015 1
  23214515.094 1 124094972.122 1
  21008608.252 1 112224049.197 1
  24943276.148 2 131077822.774 1
  22208895.677 1 116708560.497 1
  23248554.626 1 122171974.980 1
 19 11  9 18  5 44.9990053  0 16R 9G15G 5G24R20R19G 2G31G25R21G12R 5
                                R16G20G29G21
  19107740.421 1 102034272.487 1
  24858521.697 9                
  22151631.147 1 116407621.406 1
  22333492.396 1 117363287.495 1
  20818145.014 1 111324074.381 1
  22657233.691 2 121200911.649 1
  23394055.589 1 122936525.429 1
  24663624.333 1 129608238.357 1
  21050338.483 1 110620305.854 1
  22811371.382 1 122068168.152 1
  20682852.428 1 108689117.682 1
  23214044.775 1 124092456.538 1
  21009278.620 1 112227630.089 1
  24942634.817 2 131074452.985 1
  22208836.416 1 116708250.322 1
  23248015.729 1 122169142.889 1
 19 11  9 18  5 45.9990053  0 16R 9G15G 5G24R20R19G 2G31G25R21G12R 5
                                R16G20G29G21
  19107600.191 1 102033527.160 1
  24858482.329 9                
  22151648.283 1 116407711.788 1
  22334056.422 1 117366251.804 1
  20818341.678 1 111325122.722 1
  22657724.146 2 121203533.722 1
  23394697.199 1 122939896.819 1
  24663101.804 1 129605492.018 1
  21049909.417 1 110618051.334 1
  22811126.555 1 122066857.708 1
  20682870.122 1 108689210.858 1
  23213574.422 1 124089940.915 1
  21009948.917 1 112231211.510 1
  24941993.766 2 131071083.108 1
  22208777.330 1 116707940.169 1
  23247477.110 1 122166311.153 1
 19 11  9 18  5 46.9990053  0 16R 9G15G 5G24R20R19G 2G31G25R21G12R 5
                                R16G20G29G21
  19107460.345 1 102032782.671 1
  24858442.926 9                
  22151665.838 1 116407802.694 1
  22334620.482 1 117369216.244 1
  20818538.377 1 111326171.321 1
  22658214.812 2 121206155.641 1
  23395338.669 1 122943268.273 1
  24662579.344 1 129602746.053 1
  21049480.455 1 110615797.092 1
  22810881.694 1 122065547.709 1
  20682887.468 1 108689304.512 1
  23213104.278 1 124087425.236 1
  21010619.320 1 112234793.373 1
  24941352.366 2 131067713.076 1
  22208718.243 1 116707629.978 1
  23246938.178 1 122163479.700 1
 19 11  9 18  5 47.9990053  0 16R 9G15G 5G24R20R19G 2G31G25R21G12R 5
                                R16G20G29G21
  19107320.848 1 102032039.323 1
  24858400.383 9                
  22151683.323 1 116407894.334 1
  22335185.206 1 117372181.037 1
  20818735.076 1 111327220.352 1
  22658705.302 2 121208777.580 1
  23395979.859 1 122946640.013 1
  24662056.954 1 129600000.752 1
  21049051.285 1 110613543.332 1
  22810637.042 1 122064238.344 1
  20682905.651 1 108689398.863 1
  23212634.414 1 124084909.735 1
  21011289.722 1 112238375.938 1
  24940710.687 2 131064343.095 1
  22208659.262 1 116707320.018 1
  23246399.629 1 122160648.755 1
 19 11  9 18  5 48.9990053  0 16R 9G15G 5G24R20R19G 2G31G25R21G12R 5
                                R16G20G29G21
  19107181.525 1 102031296.625 1
  24858360.945 9                
  22151700.983 1 116407986.320 1
  22335749.477 1 117375145.771 1
  20818931.670 1 111328269.448 1
  22659195.793 2 121211399.161 1
  23396621.260 1 122950011.621 1
  24661534.425 1 129597255.615 1
  21048622.428 1 110611289.674 1
  22810392.529 1 122062929.176 1
  20682923.206 1 108689493.515 1
  23212164.096 1 124082394.025 1
  21011960.753 1 112241958.772 1
  24940069.356 1 131060972.757 1
  22208600.140 1 116707009.845 1
  23245861.046 1 122157817.930 1
 19 11  9 18  5 49.9990053  0 16R 9G15G 5G24R20R19G 2G31G25R21G12R 5
                                R16G20G29G21
  19107042.761 1 102030554.654 1
  24858320.112 9                
  22151718.573 1 116408078.689 1
  22336313.468 1 117378110.487 1
  20819128.299 1 111329318.647 1
  22659685.900 2 121214020.409 1
  23397262.695 1 122953383.154 1
  24661012.000 1 129594510.722 1
  21048193.746 1 110609036.143 1
  22810148.157 1 122061620.227 1
  20682941.389 1 108689588.493 1
  23211694.371 1 124079878.131 1
  21012631.609 1 112245541.960 1
  24939428.200 1 131057602.114 1
  22208540.984 1 116706699.529 1
  23245322.323 1 122154987.253 1
 19 11  9 18  5 50.9990053  0 16R 9G15G 5G24R20R19G 2G31G25R21G12R 5
                                R16G20G29G21
  19106904.172 1 102029813.301 1
  24858281.198 9                
  22151736.407 1 116408171.332 1
  22336877.459 1 117381075.092 1
  20819324.614 1 111330367.825 1
  22660176.216 2 121216641.240 1
  23397904.235 1 122956754.491 1
  24660489.925 1 129591765.961 1
  21047764.994 1 110606782.637 1
  22809903.400 1 122060311.439 1
  20682959.223 1 108689683.715 1
  23211223.948 1 124077361.948 1
  21013302.465 1 112249125.400 1
  24938786.835 2 131054231.062 1
  22208482.002 1 116706388.929 1
  23244783.669 1 122152156.624 1
 19 11  9 18  5 51.9990053  0 16R 9G15G 5G24R20R19G 2G31G25R21G12R 5
                                R16G20G29G21
  19106765.093 1 102029072.848 1
  24858240.818 9                
  22151754.485 1 116408264.574 1
  22337441.136 1 117384039.920 1
  20819521.208 1 111331417.300 1
  22660666.253 2 121219261.963 1
  23398545.914 1 122960125.972 1
  24659967.675 1 129589021.685 1
  21047336.103 1 110604529.492 1
  22809658.818 1 122059003.118 1
  20682978.139 1 108689779.486 1
  23210753.141 1 124074845.815 1
  21013973.775 1 112252709.413 1
  24938145.330 2 131050859.920 1
  22208422.951 1 116706078.412 1
  23244245.051 1 122149326.363 1
 19 11  9 18  5 52.9990053  0 16R 9G15G 5G24R20R19G 2G31G25R21G12R 5
                                R16G20G29G21
  19106626.853 1 102028333.553 1
  24858201.764 9                
  22151772.389 1 116408358.576 1
  22338005.057 1 117387005.103 1
  20819717.558 1 111332467.288 1
  22661156.395 2 121221882.760 1
  23399187.663 1 122963497.764 1
  24659445.529 1 129586278.055 1
  21046907.630 1 110602276.870 1
  22809414.829 1 122057695.461 1
  20682996.287 1 108689875.991 1
  23210283.067 1 124072329.881 1
  21014645.190 1 112256294.158 1
  24937504.035 1 131047488.883 1
  22208364.074 1 116705768.137 1
  23243706.712 1 122146496.649 1
 19 11  9 18  5 53.9990053  0 16R 9G15G 5G24R20R19G 2G31G25R21G12R 5
                                R16G20G29G21
  19106489.171 1 102027595.200 1
  24858164.072 9                
  22151790.468 1 116408453.210 1
  22338569.432 1 117389970.532 1
  20819913.733 1 111333517.596 1
  22661646.467 2 121224503.470 1
  23399829.692 1 122966869.702 1
  24658923.489 1 129583534.888 1
  21046478.878 1 110600024.619 1
  22809170.595 1 122056388.287 1
  20683014.959 1 108689973.077 1
  23209812.748 1 124069814.008 1
  21015316.465 1 112259879.476 1
  24936862.495 1 131044117.762 1
  22208305.301 1 116705457.931 1
  23243168.582 1 122143667.319 1
 19 11  9 18  5 54.9990053  0 16R 9G15G 5G24R20R19G 2G31G25R21G12R 5
                                R16G20G29G21
  19106351.104 1 102026857.610 1
  24858125.507 9                
  22151808.372 1 116408548.271 1
  22339133.737 1 117392935.995 1
  20820109.804 1 111334568.069 1
  22662136.329 2 121227123.883 1
  23400471.371 1 122970241.609 1
  24658401.134 1 129580792.052 1
  21046050.406 1 110597772.558 1
  22808926.153 1 122055081.444 1
  20683032.933 1 108690070.542 1
  23209342.221 1 124067297.996 1
  21015987.949 1 112263465.172 1
  24936220.676 2 131040746.393 1
  22208246.634 1 116705147.623 1
  23242630.208 1 122140838.198 1
 19 11  9 18  5 55.9990053  0 16R 9G15G 5G24R20R19G 2G31G25R21G12R 5
                                R16G20G29G21
  19106213.701 1 102026120.880 1
  24858089.280 9                
  22151826.974 1 116408643.851 1
  22339697.902 1 117395901.569 1
  20820305.805 1 111335618.762 1
  22662626.017 2 121229744.127 1
  23401112.806 1 122973613.560 1
  24657879.163 1 129578049.574 1
  21045622.038 1 110595520.750 1
  22808681.815 1 122053774.986 1
  20683052.163 1 108690168.477 1
  23208871.588 1 124064781.956 1
  21016659.399 1 112267051.357 1
  24935578.822 1 131037374.850 1
  22208188.071 1 116704837.289 1
  23242092.043 1 122138009.363 1
 19 11  9 18  5 56.9990053  0 16R 9G15G 5G24R20R19G 2G31G25R21G12R 5
                                R16G20G29G21
  19106076.543 1 102025384.941 1
  24858054.101 9                
  22151845.296 1 116408739.907 1
  22340262.208 1 117398867.236 1
  20820502.225 1 111336669.647 1
  22663115.670 2 121232364.155 1
  23401754.451 1 122976985.531 1
  24657357.227 1 129575307.430 1
  21045193.321 1 110593269.198 1
  22808437.372 1 122052468.851 1
  20683070.381 1 108690266.856 1
  23208400.921 1 124062265.844 1
  21017330.674 1 112270637.997 1
  24934937.317 1 131034003.117 1
  22208129.159 1 116704526.907 1
  23241553.739 1 122135180.795 1
 19 11  9 18  5 57.9990053  0 16R 9G15G 5G24R20R19G 2G31G25R21G12R 5
                                R16G20G29G21
  19105939.070 1 102024649.843 1
  24858018.537 9                
  22151863.898 1 116408836.435 1
  22340826.513 1 117401832.965 1
  20820698.574 1 111337720.740 1
  22663605.603 2 121234983.897 1
  23402396.060 1 122980357.506 1
  24656834.872 1 129572565.652 1
  21044764.953 1 110591017.863 1
  22808193.593 1 122051163.072 1
  20683089.611 1 108690365.661 1
  23207930.359 1 124059749.628 1
  21018001.914 1 112274225.031 1
  24934295.672 1 131030631.145 1
  22208070.631 1 116704216.467 1
  23241015.539 1 122132352.449 1
 19 11  9 18  5 58.9990053  0 16R 9G15G 5G24R20R19G 2G31G25R21G12R 5
                                R16G20G29G21
  19105801.876 1 102023915.512 1
  24857978.820 9                
  22151881.942 1 116408933.388 1
  22341391.202 1 117404798.748 1
  20820895.134 1 111338771.992 1
  22664095.012 2 121237603.440 1
  23403037.774 1 122983729.444 1
  24656313.285 1 129569824.155 1
  21044336.829 1 110588766.709 1
  22807949.743 1 122049857.585 1
  20683107.899 1 108690464.852 1
  23207459.552 1 124057233.262 1
  21018673.119 1 112277812.434 1
  24933653.958 1 131027258.930 1
  22208011.963 1 116703905.910 1
  23240477.409 1 122129524.309 1
 19 11  9 18  5 59.9990053  0 15R 9G 5G24R20R19G 2G31G25R21G12R 5R16
                                G20G29G21
  19105664.753 1 102023182.102 1
  22151900.439 1 116409030.911 1
  22341955.821 1 117407764.716 1
  20821092.042 1 111339823.514 1
  22664584.630 2 121240222.804 1
  23403679.559 1 122987101.504 1
  24655791.489 1 129567083.130 1
  21043908.252 1 110586515.877 1
  22807705.859 1 122048552.561 1
  20683127.478 1 108690564.584 1
  23206988.675 1 124054716.935 1
  21019344.464 1 112281400.425 1
  24933012.034 1 131023886.628 1
  22207953.435 1 116703595.397 1
  23239939.245 1 122126696.531 1
 19 11  9 18  6  0.9990053  0 15R 9G 5G24R20R19G 2G31G25R21G12R 5R16
                                G20G29G21
  19105527.733 1 102022449.619 1
  22151918.727 1 116409128.985 1
  22342520.126 1 117410730.842 1
  20821288.741 1 111340875.298 1
  22665074.108 2 121242842.025 1
  23404321.517 1 122990473.636 1
  24655270.460 1 129564342.518 1
  21043479.989 1 110584265.344 1
  22807461.870 1 122047247.985 1
  20683146.394 1 108690664.817 1
  23206517.624 1 124052200.565 1
  21020016.053 1 112284988.872 1
  24932370.320 1 131020514.163 1
  22207894.628 1 116703284.890 1
  23239401.080 1 122123869.055 1
 19 11  9 18  6  1.9990053  0 15R 9G 5G24R20R19G 2G31G25R21G12R 5R16
                                G20G29G21
  19105390.679 1 102021717.869 1
  22151937.294 1 116409227.475 1
  22343084.606 1 117413696.980 1
  20821485.230 1 111341927.218 1
  22665563.831 2 121245460.963 1
  23404963.546 1 122993845.717 1
  24654749.082 1 129561602.163 1
  21043051.586 1 110582014.994 1
  22807218.160 1 122045943.702 1
  20683166.078 1 108690765.417 1
  23206046.712 1 124049684.069 1
  21020687.677 1 112288577.736 1
  24931728.571 2 131017141.458 1
  22207835.786 1 116702974.257 1
  23238862.810 1 122121041.788 1
 19 11  9 18  6  2.9990053  0 15R 9G 5G24R20R19G 2G31G25R21G12R 5R16
                                G20G29G21
  19105254.603 1 102020986.890 1
  22151955.931 1 116409326.413 1
  22343648.876 1 117416663.153 1
  20821681.510 1 111342979.295 1
  22666053.135 2 121248079.670 1
  23405605.539 1 122997217.790 1
  24654227.565 1 129558862.121 1
  21042623.567 1 110579764.847 1
  22806974.625 1 122044639.728 1
  20683185.029 1 108690866.433 1
  23205576.045 1 124047167.458 1
  21021359.336 1 112292167.001 1
  24931086.577 1 131013768.519 1
  22207776.944 1 116702663.546 1
  23238324.611 1 122118214.729 1
 19 11  9 18  6  3.9990053  0 15R 9G 5G24R20R19G 2G31G25R21G12R 5R16
                                G20G29G21
  19105117.898 1 102020256.770 1
  22151975.196 1 116409425.839 1
  22344213.460 1 117419629.441 1
  20821878.244 1 111344031.588 1
  22666542.719 2 121250698.122 1
  23406247.498 1 123000589.866 1
  24653706.083 1 129556122.466 1
  21042195.129 1 110577514.937 1
  22806731.229 1 122043336.131 1
  20683204.887 1 108690967.880 1
  23205104.889 1 124044650.769 1
  21022031.239 1 112295756.698 1
  24930444.758 1 131010395.336 1
  22207717.718 1 116702352.777 1
  23237786.655 1 122115387.940 1
 19 11  9 18  6  4.9990053  0 15R 9G 5G24R20R19G 2G31G25R21G12R 5R16
                                G20G29G21
  19104981.891 1 102019527.711 1
  22151993.868 1 116409526.015 1
  22344777.905 1 117422596.078 1
  20822075.013 1 111345084.309 1
  22667032.127 2 121253316.671 1
  23406889.387 1 123003962.218 1
  24653184.915 1 129553383.385 1
  21041766.866 1 110575265.525 1
  22806487.869 1 122042033.134 1
  20683224.117 1 108691070.039 1
  23204634.187 1 124042134.248 1
  21022703.072 1 112299347.093 1
  24929802.870 1 131007022.239 1
  22207658.876 1 116702042.222 1
  23237249.049 1 122112561.653 1
 19 11  9 18  6  5.9990053  0 15R 9G 5G24R20R19G 2G31G25R21G12R 5R16
                                G20G29G21
  19104845.500 1 102018799.546 1
  22152012.923 1 116409626.728 1
  22345342.455 1 117425562.888 1
  20822272.445 1 111346137.331 1
  22667521.327 2 121255935.017 1
  23407531.345 1 123007334.681 1
  24652663.816 1 129550644.748 1
  21041338.882 1 110573016.418 1
  22806244.648 1 122040730.580 1
  20683243.941 1 108691172.711 1
  23204163.659 1 124039617.749 1
  21023374.801 1 112302938.036 1
  24929161.120 1 131003649.023 1
  22207599.615 1 116701731.677 1
  23236711.059 1 122109735.710 1
 19 11  9 18  6  6.9990053  0 15R 9G 5G24R20R19G 2G31G25R21G12R 5R16
                                G20G29G21
  19104708.830 1 102018072.130 1
  22152032.328 1 116409727.847 1
  22345906.899 1 117428529.691 1
  20822469.841 1 111347190.452 1
  22668010.945 2 121258553.071 1
  23408173.199 1 123010707.058 1
  24652142.648 1 129547906.369 1
  21040910.793 1 110570767.471 1
  22806001.217 1 122039428.271 1
  20683263.345 1 108691275.747 1
  23203693.167 1 124037101.070 1
  21024046.948 1 112306529.311 1
  24928519.197 1 131000275.492 1
  22207540.284 1 116701421.004 1
  23236173.139 1 122106909.918 1
 19 11  9 18  6  7.9990053  0 15R 9G 5G24R20R19G 2G31G25R21G12R 5R16
                                G20G29G21
  19104572.823 1 102017345.514 1
  22152051.383 1 116409829.438 1
  22346471.274 1 117431496.562 1
  20822667.064 1 111348243.762 1
  22668500.284 2 121261170.884 1
  23408814.878 1 123014079.440 1
  24651622.108 1 129545168.319 1
  21040483.053 1 110568518.748 1
  22805758.170 1 122038126.304 1
  20683283.239 1 108691379.207 1
  23203221.836 1 124034584.307 1
  21024719.480 1 112310121.010 1
  24927876.959 1 130996901.754 1
  22207480.953 1 116701110.245 1
  23235635.497 1 122104084.386 1
 19 11  9 18  6  8.9990053  0 15R 9G 5G24R20R19G 2G31G25R21G12R 5R16
                                G20G29G21
  19104437.234 1 102016619.855 1
  22152071.067 1 116409931.637 1
  22347035.754 1 117434463.645 1
  20822864.146 1 111349297.429 1
  22668989.274 2 121263788.634 1
  23409456.802 1 123017451.973 1
  24651101.428 1 129542430.742 1
  21040055.279 1 110566270.394 1
  22805514.740 1 122036824.814 1
  20683302.957 1 108691483.239 1
  23202750.227 1 124032067.608 1
  21025391.627 1 112313713.252 1
  24927234.930 1 130993527.950 1
  22207421.587 1 116700799.565 1
  23235097.996 1 122101259.223 1
 19 11  9 18  6  9.9990053  0 15R 9G 5G24R20R19G 2G31G25R21G12R 5R16
                                G20G29G21
  19104301.507 1 102015895.202 1
  22152090.297 1 116410034.515 1
  22347600.303 1 117437431.013 1
  20823061.334 1 111350351.448 1
  22669478.473 2 121266406.330 1
  23410098.133 1 123020824.710 1
  24650580.470 1 129539693.730 1
  21039627.644 1 110564022.472 1
  22805271.658 1 122035523.905 1
  20683322.886 1 108691587.918 1
  23202279.420 1 124029551.012 1
  21026064.124 1 112317306.111 1
  24926593.460 1 130990154.122 1
  22207362.187 1 116700489.040 1
  23234560.529 1 122098434.533 1
 19 11  9 18  6 10.9990053  0 15R 9G 5G24R20R19G 2G31G25R21G12R 5R16
                                G20G29G21
  19104165.814 1 102015171.382 1
  22152110.121 1 116410137.853 1
  22348165.062 1 117440398.431 1
  20823258.766 1 111351405.665 1
  22669967.673 2 121269023.814 1
  23410739.672 1 123024197.441 1
  24650059.441 1 129536957.044 1
  21039199.834 1 110561774.767 1
  22805028.751 1 122034223.345 1
  20683343.023 1 108691693.018 1
  23201808.718 1 124027034.281 1
  21026736.969 1 112320899.403 1
  24925951.327 1 130986780.091 1
  22207302.647 1 116700178.433 1
  23234023.062 1 122095610.064 1
 19 11  9 18  6 11.9990053  0 15R 9G 5G24R20R19G 2G31G25R21G12R 5R16
                                G20G29G21
  19104030.435 1 102014448.352 1
  22152130.293 1 116410241.659 1
  22348729.647 1 117443365.937 1
  20823456.093 1 111352460.060 1
  22670456.942 2 121271641.020 2
  23411381.247 1 123027570.178 1
  24649538.552 1 129534220.701 1
  21038771.885 1 110559527.271 1
  22804785.705 1 122032923.106 1
  20683362.707 1 108691798.539 1
  23201338.015 1 124024517.475 1
  21027409.919 1 112324493.134 1
  24925309.543 1 130983405.834 1
  22207243.107 1 116699867.756 1
  23233485.735 1 122092785.830 1
 19 11  9 18  6 12.9990053  0 15R 9G 5G24R20R19G 2G31G25R21G12R 5R16
                                G20G29G21
  19103895.475 1 102013726.268 1
  22152150.640 1 116410346.066 1
  22349294.266 1 117446333.653 1
  20823653.315 1 111353514.778 1
  22670946.072 2 121274258.136 1
  23412022.996 1 123030943.042 1
  24649017.733 1 129531484.819 1
  21038344.669 1 110557280.136 1
  22804542.728 1 122031623.322 1
  20683382.879 1 108691904.608 1
  23200867.139 1 124022000.700 1
  21028082.800 1 112328087.450 1
  24924667.619 1 130980031.500 1
  22207183.741 1 116699557.140 1
  23232948.269 1 122089961.980 1
 19 11  9 18  6 13.9990053  0 15R 9G 5G24R20R19G 2G31G25R21G12R 5R16
                                G20G29G21
  19103760.306 1 102013005.163 1
  22152170.638 1 116410451.068 1
  22349859.478 1 117449301.593 1
  20823850.747 1 111354569.776 1
  22671435.620 2 121276875.118 1
  23412664.396 1 123034316.064 1
  24648497.228 1 129528749.420 1
  21037917.138 1 110555033.366 1
  22804299.960 1 122030324.053 1
  20683402.598 1 108692011.241 1
  23200396.332 1 124019483.990 1
  21028755.436 1 112331682.312 1
  24924025.766 1 130976657.057 1
  22207124.340 1 116699246.596 1
  23232410.976 1 122087138.501 1
 19 11  9 18  6 14.9990053  0 16G15R 9G 5G24R20R19G 2G31G25R21G12R 5
                                R16G20G29G21
  24857349.775 9                
  19103625.555 1 102012284.773 1
  22152190.531 1 116410556.498 1
  22350424.098 1 117452269.566 1
  20824047.969 1 111355624.931 1
  22671924.750 2 121279491.849 1
  23413306.006 1 123037689.044 1
  24647976.758 1 129526014.315 1
  21037489.783 1 110552786.783 1
  22804057.158 1 122029025.113 1
  20683423.085 1 108692118.262 1
  23199926.083 1 124016967.190 1
  21029428.246 1 112335277.542 1
  24923383.772 1 130973282.406 1
  22207065.010 1 116698935.948 1
  23231873.545 1 122084315.233 1
 19 11  9 18  6 15.9990053  0 16G15R 9G 5G24R20R19G 2G31G25R21G12R 5
                                R16G20G29G21
  24857314.107 9 130626066.57234
  19103490.595 1 102011565.255 1
  22152210.739 1 116410662.449 1
  22350989.136 1 117455237.657 1
  20824245.227 1 111356680.308 1
  22672413.426 2 121282108.381 1
  23413947.336 1 123041062.046 1
  24647456.113 1 129523279.576 1
  21037062.043 1 110550540.445 1
  22803814.809 1 122027726.534 1
  20683442.734 1 108692225.750 1
  23199455.591 1 124014450.307 1
  21030101.301 1 112338873.206 1
  24922741.744 1 130969907.556 1
  22207005.435 1 116698625.254 1
  23231336.252 1 122081492.225 1
 19 11  9 18  6 16.9990053  0 16G15R 9G 5G24R20R19G 2G31G25R21G12R 5
                                R16G20G29G21
  24857273.483 8 130625859.15823
  19103355.775 1 102010846.664 1
  22152231.539 1 116410768.956 1
  22351554.627 1 117458205.919 1
  20824442.763 1 111357735.997 1
  22672902.276 2 121284724.771 1
  23414589.330 1 123044435.172 1
  24646935.189 1 129520545.273 1
  21036634.617 1 110548294.442 1
  22803572.391 1 122026428.372 1
  20683463.604 1 108692333.774 1
  23198984.853 1 124011933.444 1
  21030774.531 1 112342469.402 1
  24922099.750 1 130966532.593 1
  22206945.999 1 116698314.610 1
  23230799.204 1 122078669.576 1
 19 11  9 18  6 17.9990053  0 16G15R 9G 5G24R20R19G 2G31G25R21G12R 5
                                R16G20G29G21
  24857237.430 8 130625651.33522
  19103221.094 1 102010128.931 1
  22152251.468 1 116410875.987 1
  22352119.735 1 117461174.297 1
  20824640.334 1 111358791.900 1
  22673391.126 2 121287341.002 1
  23415231.638 1 123047808.338 1
  24646414.509 1 129517811.348 1
  21036207.401 1 110546048.707 1
  22803329.868 1 122025130.581 1
  20683483.672 1 108692442.260 1
  23198514.151 1 124009416.491 1
  21031447.795 1 112346066.051 1
  24921457.443 1 130963157.489 1
  22206886.285 1 116698003.930 1
  23230262.226 1 122075847.211 1
 19 11  9 18  6 18.9990053  0 16G15R 9G 5G24R20R19G 2G31G25R21G12R 5
                                R16G20G29G21
  24857199.982 8 130625443.44122
  19103087.181 1 102009412.168 1
  22152271.919 1 116410983.621 1
  22352684.773 1 117464142.894 1
  20824837.627 1 111359848.138 1
  22673880.047 2 121289957.140 1
  23415873.177 1 123051181.652 1
  24645894.004 1 129515077.941 1
  21035780.080 1 110543803.347 1
  22803087.799 1 122023833.291 1
  20683504.577 1 108692551.327 1
  23198043.589 1 124006899.600 1
  21032121.338 1 112349663.336 1
  24920814.960 1 130959782.276 1
  22206826.989 1 116697693.336 1
  23229725.144 1 122073025.226 1
 19 11  9 18  6 19.9990053  0 16G15R 9G 5G24R20R19G 2G31G25R21G12R 5
                                R16G20G29G21
  24857158.765 4 130625234.98822
  19102952.884 1 102008696.041 1
  22152292.266 1 116411091.580 1
  22353249.811 1 117467111.407 1
  20825035.198 1 111360904.380 1
  22674368.723 2 121292572.895 1
  23416515.136 1 123054554.814 1
  24645373.709 1 129512344.683 1
  21035352.829 1 110541558.047 1
  22802845.589 1 122022536.207 1
  20683524.820 1 108692660.660 1
  23197572.398 1 124004382.473 1
  21032795.231 1 112353260.899 1
  24920172.758 1 130956406.740 1
  22206767.763 1 116697382.516 1
  23229188.165 1 122070203.332 1
 19 11  9 18  6 20.9990053  0 16G15R 9G 5G24R20R19G 2G31G25R21G12R 5
                                R16G20G29G21
  24857116.640 4 130625026.28823
  19102819.006 1 102007980.793 1
  22152312.858 1 116411200.066 1
  22353814.500 1 117470080.067 1
  20825232.350 1 111361960.870 1
  22674857.189 2 121295188.487 1
  23417157.374 1 123057928.051 1
  24644853.099 2 129509611.857 1
  21034926.066 1 110539313.048 1
  22802603.695 1 122021239.505 1
  20683545.795 1 108692770.488 1
  23197101.312 1 124001865.360 1
  21033469.158 1 112356858.932 1
  24919530.345 1 130953031.026 1
  22206708.502 1 116697071.689 1
  23228651.013 1 122067381.741 1
 19 11  9 18  6 21.9990053  0 16G15R 9G 5G24R20R19G 2G31G25R21G12R 5
                                R16G20G29G21
  24857075.632 4 130624817.12822
  19102685.302 1 102007266.258 1
  22152333.484 1 116411308.954 1
  22354379.713 1 117473048.723 1
  20825429.608 1 111363017.460 1
  22675345.935 2 121297803.738 1
  23417799.123 1 123061301.200 1
  24644332.698 1 129506879.260 1
  21034498.327 1 110537068.182 1
  22802361.765 1 122019943.067 1
  20683566.630 1 108692880.668 1
  23196630.959 1 123999348.106 1
  21034142.876 1 112360457.309 1
  24918887.793 1 130949655.016 1
  22206649.625 1 116696760.729 1
  23228113.790 1 122064560.334 1
 19 11  9 18  6 22.9990053  0 16G15R 9G 5G24R20R19G 2G31G25R21G12R 5
                                R16G20G29G21
  24857036.718 8 130624607.74023
  19102551.738 1 102006552.604 1
  22152354.284 1 116411418.363 1
  22354944.646 1 117476017.525 1
  20825626.656 1 111364074.282 1
  22675834.995 2 121300418.794 1
  23418440.802 1 123064674.432 1
  24643812.228 1 129504147.075 1
  21034071.006 1 110534823.613 1
  22802120.044 1 122018647.068 1
  20683587.501 1 108692991.334 1
  23196160.396 1 123996830.797 1
  21034816.874 1 112364056.144 1
  24918245.486 1 130946278.871 1
  22206590.259 1 116696449.748 1
  23227577.057 1 122061739.210 1
 19 11  9 18  6 23.9990053  0 16G15R 9G 5G24R20R19G 2G31G25R21G12R 5
                                R16G20G29G21
  24856997.420 8 130624398.19323
  19102418.314 1 102005840.064 1
  22152375.399 1 116411528.510 1
  22355509.719 1 117478986.675 1
  20825824.436 1 111365131.594 1
  22676323.670 2 121303033.916 1
  23419082.901 1 123068047.918 1
  24643292.107 1 129501415.495 1
  21033643.824 1 110532579.545 1
  22801878.394 1 122017351.670 1
  20683609.244 1 108693102.704 1
  23195689.973 1 123994313.642 1
  21035490.592 1 112367655.683 1
  24917602.724 1 130942902.727 1
  22206531.068 1 116696138.997 1
  23227040.009 1 122058918.592 1
 19 11  9 18  6 24.9990053  0 16G15R 9G 5G24R20R19G 2G31G25R21G12R 5
                                R16G20G29G21
  24856957.075 4 130624188.42722
  19102284.925 1 102005128.349 1
  22152396.409 1 116411639.173 1
  22356074.618 1 117481955.942 1
  20826022.147 1 111366189.109 1
  22676812.207 2 121305648.812 1
  23419724.755 1 123071421.464 1
  24642772.265 1 129498684.297 1
  21033216.818 1 110530335.743 1
  22801636.638 1 122016056.678 1
  20683630.428 1 108693214.546 1
  23195219.411 1 123991796.404 1
  21036164.694 1 112371255.685 1
  24916960.591 2 130939526.456 1
  22206472.016 1 116695828.200 1
  23226503.519 1 122056098.282 1
 19 11  9 18  6 25.9990053  0 16G15R 9G 5G24R20R19G 2G31G25R21G12R 5
                                R16G20G29G21
  24856917.289 4 130623978.38523
  19102152.198 1 102004417.484 1
  22152417.245 1 116411750.311 1
  22356639.865 1 117484925.292 1
  20826219.893 1 111367246.855 1
  22677300.499 2 121308263.525 1
  23420366.399 1 123074795.042 1
  24642252.353 1 129495953.480 1
  21032789.915 1 110528092.184 1
  22801394.813 1 122014762.025 1
  20683652.171 1 108693326.826 1
  23194748.988 1 123989279.090 1
  21036838.761 1 112374856.136 1
  24916318.144 1 130936149.997 1
  22206413.174 1 116695517.362 1
  23225966.890 1 122053278.230 1
 19 11  9 18  6 26.9990053  0 16G15R 9G 5G24R20R19G 2G31G25R21G12R 5
                                R16G20G29G21
  24856873.314 8 130623767.92823
  19102019.472 1 102003707.488 1
  22152437.976 1 116411862.003 1
  22357205.182 1 117487894.772 1
  20826418.058 1 111368304.845 1
  22677789.140 2 121310878.035 1
  23421008.183 1 123078168.661 1
  24641732.546 2 129493223.038 1
  21032363.397 1 110525848.915 1
  22801152.674 1 122013467.783 1
  20683673.670 1 108693439.592 1
  23194278.530 1 123986761.772 1
  21037512.304 1 112378457.070 1
  24915675.418 1 130932773.370 1
  22206353.983 1 116695206.497 1
  23225430.331 1 122050458.488 1
 19 11  9 18  6 27.9990053  0 16G15R 9G 5G24R20R19G 2G31G25R21G12R 5
                                R16G20G29G21
  24856833.144 8 130623557.16223
  19101886.815 1 102002998.246 1
  22152459.125 1 116411974.126 1
  22357770.255 1 117490864.277 1
  20826615.699 1 111369363.017 1
  22678277.641 2 121313492.303 1
  23421650.002 1 123081542.236 1
  24641212.390 1 129490492.922 1
  21031936.705 1 110523605.832 1
  22800910.814 1 122012173.857 1
  20683695.169 1 108693552.764 1
  23193808.595 1 123984244.355 1
  21038186.580 1 112382058.378 1
  24915032.691 1 130929396.497 1
  22206294.757 1 116694895.530 1
  23224894.155 1 122047638.951 1
 19 11  9 18  6 28.9990053  0 16G15R 9G 5G24R20R19G 2G31G25R21G12R 5
                                R16G20G29G21
  24856790.600 8 130623346.10223
  19101754.473 1 102002289.951 1
  22152480.659 1 116412086.828 1
  22358335.642 1 117493833.981 1
  20826813.689 1 111370421.465 1
  22678766.073 2 121316106.432 1
  23422291.856 1 123084915.938 1
  24640692.827 2 129487763.219 1
  21031509.628 1 110521363.087 1
  22800668.640 1 122010880.389 1
  20683716.563 1 108693666.475 1
  23193337.998 1 123981727.004 1
  21038860.927 1 112385660.218 1
  24914390.069 1 130926019.553 1
  22206235.671 1 116694584.636 1
  23224357.736 1 122044819.774 1
 19 11  9 18  6 29.9990053  0 16G15R 9G 5G24R20R19G 2G31G25R21G12R 5
                                R16G20G29G21
  24856757.968 8 130623134.90222
  19101622.549 1 102001582.555 1
  22152502.088 1 116412200.110 1
  22358900.785 1 117496803.869 1
  20827011.505 1 111371480.218 1
  22679254.923 2 121318720.431 1
  23422933.919 1 123088289.756 1
  24640173.265 2 129485033.991 1
  21031083.005 1 110519120.691 1
  22800427.094 1 122009587.373 1
  20683738.375 1 108693780.712 1
  23192867.400 1 123979209.673 1
  21039535.133 1 112389262.587 1
  24913747.622 1 130922642.469 1
  22206176.794 1 116694273.774 1
  23223821.176 1 122042000.940 1
 19 11  9 18  6 30.9990053  0 16G15R 9G 5G24R20R19G 2G31G25R21G12R 5
                                R16G20G29G21
  24856717.763 4 130622923.12022
  19101490.730 1 102000875.801 1
  22152523.831 1 116412313.694 1
  22359465.998 1 117499773.655 1
  20827210.053 1 111372538.967 1
  22679743.390 2 121321334.069 1
  23423576.192 1 123091663.406 1
