% program   : rnx2rtkp ver.demo5 b33a
% inp file  : rover_201911091804.obs
% inp file  : rover_201911091804.nav
% inp file  : rover_201911091804.gnav
% inp file  : igu20786_12.sp3
% obs start : 2019/11/09 18:04:59.0 GPST (week2078 583499.0s)
% obs end   : 2019/11/09 19:06:40.0 GPST (week2078 587200.0s)
%
% (lat/lon/height=WGS84/ellipsoidal,Q=1:fix,2:float,3:sbas,4:dgps,5:single,6:ppp,ns=# of satellites)
%  GPST          latitude(deg) longitude(deg)  height(m)   Q  ns   sdn(m)   sde(m)   sdu(m)  sdne(m)  sdeu(m)  sdun(m) age(s)  ratio
2078 583499.000  -15.765921109  -47.872176478  1054.7010   5  12   3.4873   3.9729   9.6846   1.5830  -2.1848  -0.6321   0.00    0.0
2078 583500.000  -15.765921897  -47.872177855  1054.1277   5  12   3.4872   3.9728   9.6832   1.5830  -2.1830  -0.6332   0.00    0.0
2078 583501.000  -15.765923951  -47.872177271  1054.6422   5  12   3.4872   3.9727   9.6819   1.5829  -2.1811  -0.6343   0.00    0.0
2078 583502.000  -15.765926057  -47.872177742  1054.6129   5  12   3.4871   3.9726   9.6805   1.5829  -2.1793  -0.6354   0.00    0.0
2078 583503.000  -15.765927481  -47.872180106  1054.4976   5  12   3.4871   3.9725   9.6792   1.5829  -2.1774  -0.6366   0.00    0.0
2078 583504.000  -15.765925905  -47.872179382  1054.3267   5  12   3.4870   3.9724   9.6778   1.5828  -2.1755  -0.6377   0.00    0.0
2078 583505.000  -15.765927042  -47.872179818  1053.9099   5  12   3.4870   3.9723   9.6765   1.5828  -2.1737  -0.6388   0.00    0.0
2078 583506.000  -15.765926426  -47.872178458  1053.5001   5  12   3.4869   3.9722   9.6751   1.5827  -2.1718  -0.6399   0.00    0.0
2078 583507.000  -15.765926840  -47.872178909  1054.0550   5  12   3.4869   3.9721   9.6738   1.5827  -2.1700  -0.6410   0.00    0.0
2078 583508.000  -15.765929861  -47.872181309  1053.9508   5  12   3.4868   3.9720   9.6724   1.5827  -2.1681  -0.6421   0.00    0.0
2078 583509.000  -15.765930564  -47.872182911  1054.3473   5  12   3.4868   3.9719   9.6711   1.5826  -2.1662  -0.6432   0.00    0.0
2078 583510.000  -15.765930868  -47.872185016  1054.3467   5  12   3.4867   3.9718   9.6697   1.5826  -2.1644  -0.6443   0.00    0.0
2078 583511.000  -15.765930847  -47.872186155  1054.1750   5  12   3.4867   3.9717   9.6684   1.5826  -2.1625  -0.6454   0.00    0.0
2078 583512.000  -15.765931698  -47.872185833  1054.4495   5  12   3.4866   3.9717   9.6670   1.5825  -2.1607  -0.6465   0.00    0.0
2078 583513.000  -15.765930345  -47.872185537  1054.1426   5  12   3.4865   3.9716   9.6657   1.5825  -2.1588  -0.6475   0.00    0.0
2078 583514.000  -15.765929094  -47.872186012  1053.5051   5  12   3.4865   3.9715   9.6644   1.5824  -2.1569  -0.6486   0.00    0.0
2078 583515.000  -15.765926850  -47.872185310  1053.4132   5  12   3.4864   3.9714   9.6630   1.5824  -2.1551  -0.6497   0.00    0.0
2078 583516.000  -15.765925729  -47.872185551  1053.3362   5  12   3.4864   3.9713   9.6617   1.5824  -2.1532  -0.6508   0.00    0.0
2078 583517.000  -15.765926007  -47.872184580  1053.6886   5  12   3.4863   3.9712   9.6603   1.5823  -2.1513  -0.6518   0.00    0.0
2078 583518.000  -15.765924240  -47.872182990  1053.2146   5  12   3.4863   3.9711   9.6590   1.5823  -2.1495  -0.6529   0.00    0.0
2078 583519.000  -15.765922729  -47.872182179  1053.1889   5  12   3.4862   3.9710   9.6576   1.5822  -2.1476  -0.6540   0.00    0.0
2078 583520.000  -15.765921796  -47.872178777  1053.2637   5  12   3.4862   3.9709   9.6563   1.5822  -2.1457  -0.6550   0.00    0.0
2078 583521.000  -15.765921159  -47.872178588  1052.8147   5  12   3.4861   3.9708   9.6549   1.5821  -2.1438  -0.6561   0.00    0.0
2078 583522.000  -15.765920500  -47.872176646  1052.9570   5  12   3.4861   3.9707   9.6536   1.5821  -2.1420  -0.6571   0.00    0.0
2078 583523.000  -15.765918514  -47.872175992  1052.5137   5  12   3.4860   3.9706   9.6522   1.5821  -2.1401  -0.6582   0.00    0.0
2078 583524.000  -15.765917292  -47.872174214  1053.1614   5  12   3.4860   3.9706   9.6509   1.5820  -2.1382  -0.6592   0.00    0.0
2078 583525.000  -15.765917419  -47.872173956  1053.2597   5  12   3.4859   3.9705   9.6496   1.5820  -2.1363  -0.6603   0.00    0.0
2078 583526.000  -15.765916313  -47.872173690  1053.1037   5  12   3.4858   3.9704   9.6482   1.5819  -2.1345  -0.6613   0.00    0.0
2078 583527.000  -15.765915994  -47.872172795  1053.2025   5  12   3.4858   3.9703   9.6469   1.5819  -2.1326  -0.6623   0.00    0.0
2078 583528.000  -15.765916686  -47.872174660  1053.0718   5  12   3.4857   3.9702   9.6455   1.5819  -2.1307  -0.6634   0.00    0.0
2078 583529.000  -15.765916891  -47.872174138  1053.5330   5  12   3.4857   3.9701   9.6442   1.5818  -2.1288  -0.6644   0.00    0.0
2078 583530.000  -15.765918064  -47.872175386  1053.1963   5  12   3.4856   3.9700   9.6428   1.5818  -2.1269  -0.6654   0.00    0.0
2078 583531.000  -15.765919479  -47.872175762  1053.0656   5  12   3.4856   3.9699   9.6415   1.5817  -2.1251  -0.6664   0.00    0.0
2078 583532.000  -15.765920553  -47.872177411  1052.7552   5  12   3.4855   3.9698   9.6402   1.5817  -2.1232  -0.6675   0.00    0.0
2078 583533.000  -15.765921019  -47.872179059  1052.5696   5  12   3.4855   3.9697   9.6388   1.5816  -2.1213  -0.6685   0.00    0.0
2078 583534.000  -15.765922742  -47.872178089  1052.2833   5  12   3.4854   3.9697   9.6375   1.5816  -2.1194  -0.6695   0.00    0.0
2078 583535.000  -15.765923613  -47.872178668  1051.9111   5  12   3.4854   3.9696   9.6361   1.5816  -2.1175  -0.6705   0.00    0.0
2078 583536.000  -15.765926057  -47.872180337  1052.0647   5  12   3.4853   3.9695   9.6348   1.5815  -2.1156  -0.6715   0.00    0.0
2078 583537.000  -15.765926844  -47.872181565  1051.9613   5  12   3.4853   3.9694   9.6334   1.5815  -2.1137  -0.6725   0.00    0.0
2078 583538.000  -15.765927669  -47.872182144  1052.5150   5  12   3.4852   3.9693   9.6321   1.5814  -2.1118  -0.6735   0.00    0.0
2078 583539.000  -15.765928772  -47.872182755  1052.3892   5  12   3.4851   3.9692   9.6308   1.5814  -2.1100  -0.6745   0.00    0.0
2078 583540.000  -15.765928532  -47.872182821  1052.6574   5  12   3.4851   3.9691   9.6294   1.5813  -2.1081  -0.6755   0.00    0.0
2078 583541.000  -15.765929278  -47.872186031  1052.7361   5  12   3.4850   3.9690   9.6281   1.5813  -2.1062  -0.6764   0.00    0.0
2078 583542.000  -15.765928851  -47.872184565  1053.0078   5  12   3.4850   3.9689   9.6267   1.5813  -2.1043  -0.6774   0.00    0.0
2078 583543.000  -15.765929470  -47.872185268  1053.3118   5  12   3.4849   3.9689   9.6254   1.5812  -2.1024  -0.6784   0.00    0.0
2078 583544.000  -15.765930403  -47.872185942  1053.0954   5  12   3.4849   3.9688   9.6241   1.5812  -2.1005  -0.6794   0.00    0.0
2078 583545.000  -15.765930677  -47.872186132  1053.5779   5  12   3.4848   3.9687   9.6227   1.5811  -2.0986  -0.6804   0.00    0.0
2078 583546.000  -15.765929796  -47.872185175  1054.1497   5  12   3.4848   3.9686   9.6214   1.5811  -2.0967  -0.6813   0.00    0.0
2078 583547.000  -15.765928324  -47.872185433  1054.6763   5  12   3.4847   3.9685   9.6200   1.5810  -2.0948  -0.6823   0.00    0.0
2078 583548.000  -15.765929788  -47.872184734  1054.7861   5  12   3.4847   3.9684   9.6187   1.5810  -2.0929  -0.6833   0.00    0.0
2078 583549.000  -15.765930347  -47.872184564  1055.2602   5  12   3.4846   3.9683   9.6174   1.5809  -2.0910  -0.6842   0.00    0.0
2078 583550.000  -15.765929754  -47.872184104  1054.9101   5  12   3.4845   3.9682   9.6160   1.5809  -2.0891  -0.6852   0.00    0.0
2078 583551.000  -15.765928465  -47.872184400  1054.9118   5  12   3.4845   3.9682   9.6147   1.5808  -2.0872  -0.6861   0.00    0.0
2078 583552.000  -15.765927723  -47.872187097  1054.8032   5  12   3.4844   3.9681   9.6134   1.5808  -2.0853  -0.6871   0.00    0.0
2078 583553.000  -15.765926691  -47.872186179  1054.9726   5  12   3.4844   3.9680   9.6120   1.5808  -2.0834  -0.6881   0.00    0.0
2078 583554.000  -15.765926725  -47.872186552  1055.0296   5  12   3.4843   3.9679   9.6107   1.5807  -2.0815  -0.6890   0.00    0.0
2078 583555.000  -15.765926230  -47.872185357  1055.2449   5  12   3.4843   3.9678   9.6093   1.5807  -2.0796  -0.6899   0.00    0.0
2078 583556.000  -15.765926367  -47.872185868  1054.2728   5  12   3.4842   3.9677   9.6080   1.5806  -2.0777  -0.6909   0.00    0.0
2078 583557.000  -15.765925970  -47.872185355  1054.0675   5  12   3.4842   3.9676   9.6067   1.5806  -2.0757  -0.6918   0.00    0.0
2078 583558.000  -15.765924688  -47.872184774  1053.8184   5  12   3.4841   3.9676   9.6053   1.5805  -2.0738  -0.6928   0.00    0.0
2078 583559.000  -15.765923612  -47.872180542  1053.8097   5  12   3.4841   3.9675   9.6040   1.5805  -2.0719  -0.6937   0.00    0.0
2078 583560.000  -15.765922671  -47.872179742  1053.4751   5  12   3.4840   3.9674   9.6027   1.5804  -2.0700  -0.6946   0.00    0.0
2078 583561.000  -15.765920816  -47.872178346  1053.4361   5  12   3.4840   3.9673   9.6013   1.5804  -2.0681  -0.6956   0.00    0.0
2078 583562.000  -15.765919619  -47.872179446  1053.5178   5  12   3.4839   3.9672   9.6000   1.5803  -2.0662  -0.6965   0.00    0.0
2078 583563.000  -15.765917655  -47.872178114  1053.2153   5  12   3.4838   3.9671   9.5987   1.5803  -2.0643  -0.6974   0.00    0.0
2078 583564.000  -15.765918297  -47.872180576  1053.3868   5  12   3.4838   3.9670   9.5973   1.5802  -2.0623  -0.6983   0.00    0.0
2078 583565.000  -15.765917347  -47.872177826  1053.4360   5  12   3.4837   3.9670   9.5960   1.5802  -2.0604  -0.6992   0.00    0.0
2078 583566.000  -15.765916080  -47.872177355  1053.2468   5  12   3.4837   3.9669   9.5947   1.5801  -2.0585  -0.7002   0.00    0.0
2078 583567.000  -15.765915031  -47.872178509  1053.7085   5  12   3.4836   3.9668   9.5933   1.5801  -2.0566  -0.7011   0.00    0.0
2078 583568.000  -15.765914884  -47.872177659  1053.4256   5  12   3.4836   3.9667   9.5920   1.5800  -2.0547  -0.7020   0.00    0.0
2078 583569.000  -15.765914549  -47.872177867  1053.1120   5  12   3.4835   3.9666   9.5907   1.5800  -2.0527  -0.7029   0.00    0.0
2078 583570.000  -15.765915162  -47.872176163  1052.6407   5  12   3.4835   3.9665   9.5893   1.5799  -2.0508  -0.7038   0.00    0.0
2078 583571.000  -15.765917034  -47.872177100  1052.5024   5  12   3.4834   3.9665   9.5880   1.5799  -2.0489  -0.7047   0.00    0.0
2078 583572.000  -15.765918605  -47.872178469  1052.6679   5  12   3.4834   3.9664   9.5867   1.5798  -2.0470  -0.7056   0.00    0.0
2078 583573.000  -15.765918571  -47.872179897  1052.1280   5  12   3.4833   3.9663   9.5853   1.5798  -2.0450  -0.7065   0.00    0.0
2078 583574.000  -15.765919636  -47.872178882  1052.4000   5  12   3.4832   3.9662   9.5840   1.5797  -2.0431  -0.7074   0.00    0.0
2078 583575.000  -15.765919182  -47.872178685  1051.8883   5  12   3.4832   3.9661   9.5827   1.5797  -2.0412  -0.7082   0.00    0.0
2078 583576.000  -15.765922009  -47.872177473  1052.2346   5  12   3.4831   3.9661   9.5813   1.5796  -2.0393  -0.7091   0.00    0.0
2078 583577.000  -15.765924913  -47.872179580  1052.4045   5  12   3.4831   3.9660   9.5800   1.5796  -2.0373  -0.7100   0.00    0.0
2078 583578.000  -15.765925604  -47.872178918  1053.0848   5  12   3.4830   3.9659   9.5787   1.5795  -2.0354  -0.7109   0.00    0.0
2078 583579.000  -15.765927556  -47.872178798  1052.6855   5  12   3.4830   3.9658   9.5773   1.5795  -2.0335  -0.7118   0.00    0.0
2078 583580.000  -15.765928817  -47.872177772  1053.1220   5  12   3.4829   3.9657   9.5760   1.5794  -2.0315  -0.7126   0.00    0.0
2078 583581.000  -15.765928765  -47.872178289  1052.9706   5  12   3.4829   3.9656   9.5747   1.5794  -2.0296  -0.7135   0.00    0.0
2078 583582.000  -15.765930218  -47.872178217  1053.2650   5  12   3.4828   3.9656   9.5734   1.5793  -2.0276  -0.7144   0.00    0.0
2078 583583.000  -15.765932163  -47.872178451  1053.6555   5  12   3.4828   3.9655   9.5720   1.5793  -2.0257  -0.7152   0.00    0.0
2078 583584.000  -15.765932389  -47.872179836  1053.5317   5  12   3.4827   3.9654   9.5707   1.5792  -2.0238  -0.7161   0.00    0.0
2078 583585.000  -15.765933047  -47.872178336  1053.5879   5  12   3.4826   3.9653   9.5694   1.5792  -2.0218  -0.7170   0.00    0.0
2078 583586.000  -15.765934166  -47.872176117  1052.7534   5  12   3.4826   3.9652   9.5680   1.5791  -2.0199  -0.7178   0.00    0.0
2078 583587.000  -15.765933164  -47.872173246  1052.0839   5  12   3.4825   3.9652   9.5667   1.5791  -2.0179  -0.7187   0.00    0.0
2078 583588.000  -15.765934214  -47.872171703  1051.8314   5  12   3.4825   3.9651   9.5654   1.5790  -2.0160  -0.7195   0.00    0.0
2078 583589.000  -15.765935615  -47.872171784  1051.6196   5  12   3.4824   3.9650   9.5641   1.5790  -2.0140  -0.7204   0.00    0.0
2078 583590.000  -15.765934271  -47.872171140  1051.3051   5  12   3.4824   3.9649   9.5627   1.5789  -2.0121  -0.7212   0.00    0.0
2078 583591.000  -15.765933819  -47.872170687  1050.9223   5  12   3.4823   3.9648   9.5614   1.5789  -2.0102  -0.7221   0.00    0.0
2078 583592.000  -15.765932586  -47.872170806  1050.4645   5  12   3.4823   3.9648   9.5601   1.5788  -2.0082  -0.7229   0.00    0.0
2078 583593.000  -15.765930457  -47.872172204  1050.0281   5  12   3.4822   3.9647   9.5588   1.5788  -2.0062  -0.7238   0.00    0.0
2078 583594.000  -15.765929755  -47.872172364  1050.2466   5  12   3.4821   3.9646   9.5574   1.5787  -2.0043  -0.7246   0.00    0.0
2078 583595.000  -15.765929228  -47.872171857  1050.2498   5  12   3.4821   3.9645   9.5561   1.5787  -2.0023  -0.7254   0.00    0.0
2078 583596.000  -15.765927272  -47.872173499  1050.2073   5  12   3.4820   3.9644   9.5548   1.5786  -2.0004  -0.7263   0.00    0.0
2078 583597.000  -15.765928339  -47.872173889  1050.5564   5  12   3.4820   3.9644   9.5535   1.5786  -1.9984  -0.7271   0.00    0.0
2078 583598.000  -15.765928597  -47.872174100  1050.7744   5  12   3.4819   3.9643   9.5521   1.5785  -1.9965  -0.7279   0.00    0.0
2078 583599.000  -15.765929177  -47.872173409  1050.7764   5  12   3.4819   3.9642   9.5508   1.5785  -1.9945  -0.7288   0.00    0.0
2078 583600.000  -15.765930246  -47.872175368  1050.6200   5  12   3.4818   3.9641   9.5495   1.5784  -1.9926  -0.7296   0.00    0.0
2078 583601.000  -15.765930223  -47.872174769  1050.9914   5  12   3.4818   3.9641   9.5482   1.5784  -1.9906  -0.7304   0.00    0.0
2078 583602.000  -15.765932177  -47.872177941  1052.0643   5  12   3.4817   3.9640   9.5468   1.5783  -1.9886  -0.7312   0.00    0.0
2078 583603.000  -15.765934092  -47.872180950  1052.3428   5  12   3.4817   3.9639   9.5455   1.5782  -1.9867  -0.7320   0.00    0.0
2078 583604.000  -15.765934358  -47.872180950  1052.7484   5  12   3.4816   3.9638   9.5442   1.5782  -1.9847  -0.7329   0.00    0.0
2078 583605.000  -15.765934266  -47.872183147  1053.1383   5  12   3.4815   3.9637   9.5429   1.5781  -1.9827  -0.7337   0.00    0.0
2078 583606.000  -15.765935453  -47.872184970  1052.8464   5  12   3.4815   3.9637   9.5415   1.5781  -1.9808  -0.7345   0.00    0.0
2078 583607.000  -15.765935031  -47.872184046  1052.9284   5  12   3.4814   3.9636   9.5402   1.5780  -1.9788  -0.7353   0.00    0.0
2078 583608.000  -15.765934842  -47.872185326  1052.9707   5  12   3.4814   3.9635   9.5389   1.5780  -1.9768  -0.7361   0.00    0.0
2078 583609.000  -15.765935279  -47.872186374  1053.7284   5  12   3.4813   3.9634   9.5376   1.5779  -1.9749  -0.7369   0.00    0.0
2078 583610.000  -15.765935123  -47.872186393  1053.9029   5  12   3.4813   3.9634   9.5363   1.5779  -1.9729  -0.7377   0.00    0.0
2078 583611.000  -15.765935382  -47.872186177  1053.7668   5  12   3.4812   3.9633   9.5349   1.5778  -1.9709  -0.7385   0.00    0.0
2078 583612.000  -15.765935899  -47.872184371  1053.7275   5  12   3.4812   3.9632   9.5336   1.5778  -1.9689  -0.7393   0.00    0.0
2078 583613.000  -15.765936495  -47.872184474  1053.5114   5  12   3.4811   3.9631   9.5323   1.5777  -1.9670  -0.7401   0.00    0.0
2078 583614.000  -15.765937285  -47.872185677  1052.9216   5  12   3.4810   3.9631   9.5310   1.5776  -1.9650  -0.7409   0.00    0.0
2078 583615.000  -15.765937881  -47.872185770  1052.8780   5  12   3.4810   3.9630   9.5297   1.5776  -1.9630  -0.7416   0.00    0.0
2078 583616.000  -15.765938575  -47.872186703  1052.3304   5  12   3.4809   3.9629   9.5283   1.5775  -1.9610  -0.7424   0.00    0.0
2078 583617.000  -15.765937288  -47.872188052  1052.1928   5  12   3.4809   3.9628   9.5270   1.5775  -1.9591  -0.7432   0.00    0.0
2078 583618.000  -15.765938011  -47.872188210  1052.0238   5  12   3.4808   3.9627   9.5257   1.5774  -1.9571  -0.7440   0.00    0.0
2078 583619.000  -15.765938819  -47.872187597  1051.7195   5  12   3.4808   3.9627   9.5244   1.5774  -1.9551  -0.7448   0.00    0.0
2078 583620.000  -15.765936661  -47.872186468  1051.1942   5  12   3.4807   3.9626   9.5231   1.5773  -1.9531  -0.7456   0.00    0.0
2078 583621.000  -15.765936253  -47.872187656  1051.6242   5  12   3.4807   3.9625   9.5217   1.5773  -1.9511  -0.7463   0.00    0.0
2078 583622.000  -15.765936499  -47.872188886  1051.6105   5  12   3.4806   3.9625   9.5204   1.5772  -1.9491  -0.7471   0.00    0.0
2078 583623.000  -15.765936175  -47.872190740  1051.8218   5  12   3.4805   3.9624   9.5191   1.5771  -1.9471  -0.7479   0.00    0.0
2078 583624.000  -15.765935255  -47.872192193  1052.2127   5  12   3.4805   3.9623   9.5178   1.5771  -1.9451  -0.7486   0.00    0.0
2078 583625.000  -15.765934496  -47.872193047  1052.0501   5  12   3.4804   3.9622   9.5165   1.5770  -1.9432  -0.7494   0.00    0.0
2078 583626.000  -15.765935127  -47.872192449  1052.3183   5  12   3.4804   3.9622   9.5152   1.5770  -1.9412  -0.7502   0.00    0.0
2078 583627.000  -15.765934181  -47.872189518  1052.4371   5  12   3.4803   3.9621   9.5138   1.5769  -1.9392  -0.7509   0.00    0.0
2078 583628.000  -15.765933580  -47.872190015  1052.3663   5  12   3.4803   3.9620   9.5125   1.5769  -1.9372  -0.7517   0.00    0.0
2078 583629.000  -15.765934619  -47.872189095  1052.4986   5  12   3.4802   3.9619   9.5112   1.5768  -1.9352  -0.7524   0.00    0.0
2078 583630.000  -15.765934316  -47.872190223  1052.0912   5  12   3.4802   3.9619   9.5099   1.5767  -1.9332  -0.7532   0.00    0.0
2078 583631.000  -15.765932359  -47.872189175  1051.5860   5  12   3.4801   3.9618   9.5086   1.5767  -1.9312  -0.7540   0.00    0.0
2078 583632.000  -15.765931668  -47.872187901  1050.6746   5  12   3.4801   3.9617   9.5073   1.5766  -1.9292  -0.7547   0.00    0.0
2078 583633.000  -15.765928142  -47.872184303  1050.1368   5  12   3.4800   3.9616   9.5059   1.5766  -1.9272  -0.7555   0.00    0.0
2078 583634.000  -15.765928537  -47.872183691  1048.9716   5  12   3.4799   3.9616   9.5046   1.5765  -1.9252  -0.7562   0.00    0.0
2078 583635.000  -15.765925554  -47.872182635  1048.1438   5  12   3.4799   3.9615   9.5033   1.5764  -1.9232  -0.7569   0.00    0.0
2078 583636.000  -15.765924582  -47.872181846  1047.5568   5  12   3.4798   3.9614   9.5020   1.5764  -1.9212  -0.7577   0.00    0.0
2078 583637.000  -15.765924713  -47.872181553  1047.2601   5  12   3.4798   3.9614   9.5007   1.5763  -1.9192  -0.7584   0.00    0.0
2078 583638.000  -15.765924250  -47.872182056  1047.2016   5  12   3.4797   3.9613   9.4994   1.5763  -1.9172  -0.7592   0.00    0.0
2078 583639.000  -15.765923858  -47.872181498  1047.4754   5  12   3.4797   3.9612   9.4981   1.5762  -1.9151  -0.7599   0.00    0.0
2078 583640.000  -15.765922954  -47.872179477  1047.3722   5  12   3.4796   3.9611   9.4968   1.5761  -1.9131  -0.7606   0.00    0.0
2078 583641.000  -15.765924199  -47.872179241  1047.1536   5  12   3.4795   3.9611   9.4954   1.5761  -1.9111  -0.7614   0.00    0.0
2078 583642.000  -15.765924765  -47.872178713  1047.2915   5  12   3.4795   3.9610   9.4941   1.5760  -1.9091  -0.7621   0.00    0.0
2078 583643.000  -15.765924882  -47.872177963  1047.3875   5  12   3.4794   3.9609   9.4928   1.5760  -1.9071  -0.7628   0.00    0.0
2078 583644.000  -15.765923785  -47.872178518  1046.8044   5  12   3.4794   3.9609   9.4915   1.5759  -1.9051  -0.7635   0.00    0.0
2078 583645.000  -15.765923292  -47.872178372  1046.7266   5  12   3.4793   3.9608   9.4902   1.5759  -1.9031  -0.7643   0.00    0.0
2078 583646.000  -15.765922145  -47.872176105  1047.4678   5  12   3.4793   3.9607   9.4889   1.5758  -1.9010  -0.7650   0.00    0.0
2078 583647.000  -15.765922195  -47.872176712  1047.8418   5  12   3.4792   3.9606   9.4876   1.5757  -1.8990  -0.7657   0.00    0.0
2078 583648.000  -15.765922358  -47.872178424  1048.0112   5  12   3.4792   3.9606   9.4863   1.5757  -1.8970  -0.7664   0.00    0.0
2078 583649.000  -15.765922680  -47.872179225  1047.8263   5  12   3.4791   3.9605   9.4850   1.5756  -1.8950  -0.7671   0.00    0.0
2078 583650.000  -15.765921767  -47.872178360  1048.3324   5  12   3.4790   3.9604   9.4836   1.5755  -1.8929  -0.7679   0.00    0.0
2078 583651.000  -15.765920963  -47.872179647  1047.9830   5  12   3.4790   3.9604   9.4823   1.5755  -1.8909  -0.7686   0.00    0.0
2078 583652.000  -15.765921573  -47.872178899  1047.9688   5  12   3.4789   3.9603   9.4810   1.5754  -1.8889  -0.7693   0.00    0.0
2078 583653.000  -15.765920919  -47.872178448  1048.1674   5  12   3.4789   3.9602   9.4797   1.5754  -1.8869  -0.7700   0.00    0.0
2078 583654.000  -15.765920824  -47.872176101  1048.1926   5  12   3.4788   3.9602   9.4784   1.5753  -1.8848  -0.7707   0.00    0.0
2078 583655.000  -15.765923015  -47.872177249  1048.2363   5  12   3.4788   3.9601   9.4771   1.5752  -1.8828  -0.7714   0.00    0.0
2078 583656.000  -15.765921557  -47.872174981  1047.7207   5  12   3.4787   3.9600   9.4758   1.5752  -1.8808  -0.7721   0.00    0.0
2078 583657.000  -15.765922121  -47.872174285  1048.0526   5  12   3.4787   3.9600   9.4745   1.5751  -1.8787  -0.7728   0.00    0.0
2078 583658.000  -15.765922036  -47.872174881  1048.1287   5  12   3.4786   3.9599   9.4732   1.5751  -1.8767  -0.7735   0.00    0.0
2078 583659.000  -15.765922259  -47.872174815  1047.6484   5  12   3.4785   3.9598   9.4719   1.5750  -1.8746  -0.7742   0.00    0.0
2078 583660.000  -15.765922593  -47.872173126  1047.5957   5  12   3.4785   3.9597   9.4706   1.5749  -1.8726  -0.7749   0.00    0.0
2078 583661.000  -15.765922966  -47.872174277  1047.6023   5  12   3.4784   3.9597   9.4693   1.5749  -1.8706  -0.7755   0.00    0.0
2078 583662.000  -15.765925880  -47.872175522  1047.8494   5  12   3.4784   3.9596   9.4680   1.5748  -1.8685  -0.7762   0.00    0.0
2078 583663.000  -15.765926603  -47.872177036  1048.0587   5  12   3.4783   3.9595   9.4666   1.5747  -1.8665  -0.7769   0.00    0.0
2078 583664.000  -15.765926420  -47.872177867  1048.1804   5  12   3.4783   3.9595   9.4653   1.5747  -1.8644  -0.7776   0.00    0.0
2078 583665.000  -15.765925234  -47.872176245  1048.3626   5  12   3.4782   3.9594   9.4640   1.5746  -1.8624  -0.7783   0.00    0.0
2078 583666.000  -15.765924449  -47.872174784  1048.8843   5  12   3.4782   3.9593   9.4627   1.5746  -1.8603  -0.7790   0.00    0.0
2078 583667.000  -15.765923639  -47.872175275  1049.1153   5  12   3.4781   3.9593   9.4614   1.5745  -1.8583  -0.7796   0.00    0.0
2078 583668.000  -15.765921748  -47.872176360  1049.5840   5  12   3.4780   3.9592   9.4601   1.5744  -1.8562  -0.7803   0.00    0.0
2078 583669.000  -15.765921187  -47.872176351  1049.9442   5  12   3.4780   3.9591   9.4588   1.5744  -1.8542  -0.7810   0.00    0.0
2078 583670.000  -15.765921675  -47.872175219  1050.1977   5  12   3.4779   3.9591   9.4575   1.5743  -1.8521  -0.7817   0.00    0.0
2078 583671.000  -15.765922252  -47.872175541  1050.6442   5  12   3.4779   3.9590   9.4562   1.5742  -1.8501  -0.7823   0.00    0.0
2078 583672.000  -15.765922366  -47.872177230  1050.5266   5  12   3.4778   3.9589   9.4549   1.5742  -1.8480  -0.7830   0.00    0.0
2078 583673.000  -15.765923986  -47.872178195  1050.8516   5  12   3.4778   3.9589   9.4536   1.5741  -1.8459  -0.7837   0.00    0.0
2078 583674.000  -15.765924970  -47.872179471  1050.7638   5  12   3.4777   3.9588   9.4523   1.5740  -1.8439  -0.7843   0.00    0.0
2078 583675.000  -15.765925509  -47.872182313  1050.9613   5  12   3.4776   3.9587   9.4510   1.5740  -1.8418  -0.7850   0.00    0.0
2078 583676.000  -15.765925328  -47.872182238  1050.8864   5  12   3.4776   3.9587   9.4497   1.5739  -1.8398  -0.7857   0.00    0.0
2078 583677.000  -15.765924801  -47.872182516  1050.9064   5  12   3.4775   3.9586   9.4484   1.5739  -1.8377  -0.7863   0.00    0.0
2078 583678.000  -15.765923290  -47.872182155  1051.4517   5  12   3.4775   3.9585   9.4471   1.5738  -1.8356  -0.7870   0.00    0.0
2078 583679.000  -15.765924143  -47.872181107  1052.0189   5  12   3.4774   3.9585   9.4458   1.5737  -1.8336  -0.7876   0.00    0.0
2078 583680.000  -15.765924221  -47.872180113  1052.4272   5  12   3.4774   3.9584   9.4445   1.5737  -1.8315  -0.7883   0.00    0.0
2078 583681.000  -15.765922298  -47.872179632  1052.8140   5  12   3.4773   3.9584   9.4432   1.5736  -1.8294  -0.7889   0.00    0.0
2078 583682.000  -15.765922331  -47.872180146  1052.9125   5  12   3.4773   3.9583   9.4419   1.5735  -1.8273  -0.7896   0.00    0.0
2078 583683.000  -15.765922357  -47.872180320  1052.6920   5  12   3.4772   3.9582   9.4406   1.5735  -1.8253  -0.7902   0.00    0.0
2078 583684.000  -15.765921304  -47.872180610  1052.8940   5  12   3.4771   3.9582   9.4393   1.5734  -1.8232  -0.7909   0.00    0.0
2078 583685.000  -15.765919633  -47.872181464  1052.9772   5  12   3.4771   3.9581   9.4380   1.5733  -1.8211  -0.7915   0.00    0.0
2078 583686.000  -15.765918707  -47.872182175  1053.5550   5  12   3.4770   3.9580   9.4367   1.5733  -1.8190  -0.7922   0.00    0.0
2078 583687.000  -15.765919808  -47.872183772  1053.9225   5  12   3.4770   3.9580   9.4354   1.5732  -1.8169  -0.7928   0.00    0.0
2078 583688.000  -15.765919349  -47.872186139  1054.0821   5  12   3.4769   3.9579   9.4341   1.5731  -1.8149  -0.7935   0.00    0.0
2078 583689.000  -15.765918541  -47.872186319  1054.1096   5  12   3.4769   3.9578   9.4328   1.5731  -1.8128  -0.7941   0.00    0.0
2078 583690.000  -15.765918000  -47.872185544  1054.0919   5  12   3.4768   3.9578   9.4315   1.5730  -1.8107  -0.7947   0.00    0.0
2078 583691.000  -15.765917867  -47.872184618  1053.6831   5  12   3.4767   3.9577   9.4302   1.5729  -1.8086  -0.7954   0.00    0.0
2078 583692.000  -15.765919258  -47.872185470  1053.6465   5  12   3.4767   3.9577   9.4289   1.5729  -1.8065  -0.7960   0.00    0.0
2078 583693.000  -15.765917679  -47.872187769  1053.9492   5  12   3.4766   3.9576   9.4276   1.5728  -1.8044  -0.7966   0.00    0.0
2078 583694.000  -15.765918598  -47.872188854  1053.6691   5  12   3.4766   3.9575   9.4263   1.5727  -1.8023  -0.7972   0.00    0.0
2078 583695.000  -15.765919415  -47.872187859  1053.3147   5  12   3.4765   3.9575   9.4250   1.5727  -1.8002  -0.7979   0.00    0.0
2078 583696.000  -15.765920914  -47.872188435  1053.0620   5  12   3.4765   3.9574   9.4237   1.5726  -1.7981  -0.7985   0.00    0.0
2078 583697.000  -15.765919958  -47.872187527  1052.9078   5  12   3.4764   3.9573   9.4224   1.5725  -1.7960  -0.7991   0.00    0.0
2078 583698.000  -15.765920170  -47.872189820  1051.8351   5  12   3.4764   3.9573   9.4212   1.5725  -1.7939  -0.7997   0.00    0.0
2078 583699.000  -15.765919400  -47.872190656  1050.9686   5  12   3.4763   3.9572   9.4199   1.5724  -1.7918  -0.8004   0.00    0.0
2078 583700.000  -15.765920492  -47.872189773  1050.3666   5  12   3.4762   3.9572   9.4186   1.5723  -1.7897  -0.8010   0.00    0.0
2078 583701.000  -15.765922442  -47.872192239  1050.2029   5  12   3.4762   3.9571   9.4173   1.5723  -1.7876  -0.8016   0.00    0.0
2078 583702.000  -15.765924420  -47.872191859  1050.0911   5  12   3.4761   3.9570   9.4160   1.5722  -1.7855  -0.8022   0.00    0.0
2078 583703.000  -15.765922689  -47.872189899  1049.8908   5  12   3.4761   3.9570   9.4147   1.5721  -1.7834  -0.8028   0.00    0.0
2078 583704.000  -15.765923376  -47.872190302  1049.1779   5  12   3.4760   3.9569   9.4134   1.5721  -1.7813  -0.8034   0.00    0.0
2078 583705.000  -15.765926057  -47.872191793  1049.1314   5  12   3.4760   3.9569   9.4121   1.5720  -1.7792  -0.8040   0.00    0.0
2078 583706.000  -15.765927049  -47.872191085  1048.5615   5  12   3.4759   3.9568   9.4108   1.5719  -1.7771  -0.8046   0.00    0.0
2078 583707.000  -15.765926164  -47.872191068  1048.7426   5  12   3.4758   3.9567   9.4095   1.5719  -1.7749  -0.8052   0.00    0.0
2078 583708.000  -15.765927751  -47.872190520  1048.7922   5  12   3.4758   3.9567   9.4082   1.5718  -1.7728  -0.8058   0.00    0.0
2078 583709.000  -15.765930391  -47.872191253  1049.3739   5  12   3.4757   3.9566   9.4069   1.5717  -1.7707  -0.8064   0.00    0.0
2078 583710.000  -15.765930646  -47.872189989  1049.6961   5  12   3.4757   3.9566   9.4056   1.5716  -1.7686  -0.8070   0.00    0.0
2078 583711.000  -15.765932117  -47.872188838  1049.6186   5  12   3.4756   3.9565   9.4044   1.5716  -1.7665  -0.8076   0.00    0.0
2078 583712.000  -15.765930860  -47.872189685  1049.7595   5  12   3.4756   3.9564   9.4031   1.5715  -1.7643  -0.8082   0.00    0.0
2078 583713.000  -15.765931634  -47.872190726  1049.9183   5  12   3.4755   3.9564   9.4018   1.5714  -1.7622  -0.8088   0.00    0.0
2078 583714.000  -15.765932286  -47.872193128  1050.4574   5  12   3.4754   3.9563   9.4005   1.5714  -1.7601  -0.8094   0.00    0.0
2078 583715.000  -15.765930992  -47.872193620  1050.8311   5  12   3.4754   3.9563   9.3992   1.5713  -1.7580  -0.8100   0.00    0.0
2078 583716.000  -15.765932548  -47.872192341  1051.1176   5  12   3.4753   3.9562   9.3979   1.5712  -1.7558  -0.8106   0.00    0.0
2078 583717.000  -15.765930999  -47.872193166  1051.9833   5  12   3.4753   3.9561   9.3966   1.5712  -1.7537  -0.8112   0.00    0.0
2078 583718.000  -15.765930141  -47.872192576  1052.3120   5  12   3.4752   3.9561   9.3953   1.5711  -1.7515  -0.8118   0.00    0.0
2078 583719.000  -15.765929776  -47.872190874  1052.2668   5  12   3.4752   3.9560   9.3940   1.5710  -1.7494  -0.8124   0.00    0.0
2078 583720.000  -15.765929118  -47.872190765  1052.4751   5  12   3.4751   3.9560   9.3928   1.5709  -1.7473  -0.8130   0.00    0.0
2078 583721.000  -15.765929149  -47.872191355  1052.4809   5  12   3.4750   3.9559   9.3915   1.5709  -1.7451  -0.8135   0.00    0.0
2078 583722.000  -15.765929575  -47.872190948  1052.7496   5  12   3.4750   3.9558   9.3902   1.5708  -1.7430  -0.8141   0.00    0.0
2078 583723.000  -15.765930087  -47.872189686  1052.7521   5  12   3.4749   3.9558   9.3889   1.5707  -1.7408  -0.8147   0.00    0.0
2078 583724.000  -15.765931541  -47.872189589  1052.6753   5  12   3.4749   3.9557   9.3876   1.5707  -1.7387  -0.8153   0.00    0.0
2078 583725.000  -15.765930522  -47.872186589  1052.8836   5  12   3.4748   3.9557   9.3863   1.5706  -1.7366  -0.8158   0.00    0.0
2078 583726.000  -15.765931295  -47.872185669  1053.3667   5  12   3.4748   3.9556   9.3850   1.5705  -1.7344  -0.8164   0.00    0.0
2078 583727.000  -15.765932544  -47.872185624  1053.4425   5  12   3.4747   3.9556   9.3838   1.5704  -1.7323  -0.8170   0.00    0.0
2078 583728.000  -15.765932014  -47.872184114  1053.5912   5  12   3.4746   3.9555   9.3825   1.5704  -1.7301  -0.8176   0.00    0.0
2078 583729.000  -15.765932330  -47.872183415  1054.3535   5  12   3.4746   3.9554   9.3812   1.5703  -1.7279  -0.8181   0.00    0.0
2078 583730.000  -15.765932798  -47.872183558  1054.5075   5  12   3.4745   3.9554   9.3799   1.5702  -1.7258  -0.8187   0.00    0.0
2078 583731.000  -15.765933795  -47.872183797  1054.8037   5  12   3.4745   3.9553   9.3786   1.5702  -1.7236  -0.8193   0.00    0.0
2078 583732.000  -15.765934190  -47.872183463  1055.1862   5  12   3.4744   3.9553   9.3773   1.5701  -1.7215  -0.8198   0.00    0.0
2078 583733.000  -15.765934289  -47.872182515  1055.1444   5  12   3.4744   3.9552   9.3760   1.5700  -1.7193  -0.8204   0.00    0.0
2078 583734.000  -15.765934439  -47.872182616  1055.2008   5  12   3.4743   3.9552   9.3748   1.5699  -1.7171  -0.8209   0.00    0.0
2078 583735.000  -15.765933975  -47.872183515  1055.3297   5  12   3.4742   3.9551   9.3735   1.5699  -1.7150  -0.8215   0.00    0.0
2078 583736.000  -15.765930694  -47.872184495  1055.0306   5  12   3.4742   3.9551   9.3722   1.5698  -1.7128  -0.8221   0.00    0.0
2078 583737.000  -15.765928936  -47.872183772  1055.6073   5  12   3.4741   3.9550   9.3709   1.5697  -1.7106  -0.8226   0.00    0.0
2078 583738.000  -15.765928462  -47.872184540  1055.7341   5  12   3.4741   3.9549   9.3696   1.5697  -1.7085  -0.8232   0.00    0.0
2078 583739.000  -15.765927594  -47.872186657  1055.7035   5  12   3.4740   3.9549   9.3684   1.5696  -1.7063  -0.8237   0.00    0.0
2078 583740.000  -15.765927853  -47.872185535  1055.5374   5  12   3.4740   3.9548   9.3671   1.5695  -1.7041  -0.8243   0.00    0.0
2078 583741.000  -15.765926789  -47.872184522  1055.4015   5  12   3.4739   3.9548   9.3658   1.5694  -1.7019  -0.8248   0.00    0.0
2078 583742.000  -15.765925702  -47.872184265  1055.2587   5  12   3.4738   3.9547   9.3645   1.5694  -1.6997  -0.8254   0.00    0.0
2078 583743.000  -15.765923426  -47.872185137  1055.0644   5  12   3.4738   3.9547   9.3632   1.5693  -1.6976  -0.8259   0.00    0.0
2078 583744.000  -15.765920932  -47.872184568  1055.2759   5  12   3.4737   3.9546   9.3620   1.5692  -1.6954  -0.8265   0.00    0.0
2078 583745.000  -15.765917655  -47.872181662  1054.7925   5  12   3.4737   3.9546   9.3607   1.5691  -1.6932  -0.8270   0.00    0.0
2078 583746.000  -15.765915087  -47.872182642  1055.0157   5  12   3.4736   3.9545   9.3594   1.5691  -1.6910  -0.8276   0.00    0.0
2078 583747.000  -15.765913764  -47.872182348  1054.8845   5  12   3.4736   3.9545   9.3581   1.5690  -1.6888  -0.8281   0.00    0.0
2078 583748.000  -15.765914592  -47.872183623  1054.8914   5  12   3.4735   3.9544   9.3568   1.5689  -1.6866  -0.8286   0.00    0.0
2078 583749.000  -15.765915967  -47.872184338  1054.6374   5  12   3.4734   3.9544   9.3556   1.5688  -1.6844  -0.8292   0.00    0.0
2078 583750.000  -15.765914223  -47.872183868  1054.5265   5  12   3.4734   3.9543   9.3543   1.5688  -1.6822  -0.8297   0.00    0.0
2078 583751.000  -15.765915367  -47.872184117  1054.5757   5  12   3.4733   3.9542   9.3530   1.5687  -1.6800  -0.8302   0.00    0.0
2078 583752.000  -15.765914998  -47.872182193  1054.7877   5  12   3.4733   3.9542   9.3517   1.5686  -1.6778  -0.8308   0.00    0.0
2078 583753.000  -15.765912979  -47.872179987  1054.6829   5  12   3.4732   3.9541   9.3505   1.5685  -1.6756  -0.8313   0.00    0.0
2078 583754.000  -15.765913974  -47.872180072  1054.3533   5  12   3.4732   3.9541   9.3492   1.5685  -1.6734  -0.8318   0.00    0.0
2078 583755.000  -15.765914069  -47.872178443  1054.2549   5  12   3.4731   3.9540   9.3479   1.5684  -1.6712  -0.8324   0.00    0.0
2078 583756.000  -15.765914826  -47.872179116  1054.6942   5  12   3.4730   3.9540   9.3466   1.5683  -1.6690  -0.8329   0.00    0.0
2078 583757.000  -15.765915062  -47.872178710  1054.9733   5  12   3.4730   3.9539   9.3454   1.5682  -1.6668  -0.8334   0.00    0.0
2078 583758.000  -15.765915813  -47.872177241  1055.0675   5  12   3.4729   3.9539   9.3441   1.5682  -1.6646  -0.8339   0.00    0.0
2078 583759.000  -15.765914728  -47.872177832  1054.7961   5  12   3.4729   3.9538   9.3428   1.5681  -1.6624  -0.8345   0.00    0.0
2078 583760.000  -15.765915104  -47.872177418  1054.4896   5  12   3.4728   3.9538   9.3415   1.5680  -1.6601  -0.8350   0.00    0.0
2078 583761.000  -15.765914921  -47.872178207  1054.3320   5  12   3.4728   3.9537   9.3403   1.5679  -1.6579  -0.8355   0.00    0.0
2078 583762.000  -15.765916173  -47.872177802  1053.9397   5  12   3.4727   3.9537   9.3390   1.5679  -1.6557  -0.8360   0.00    0.0
2078 583763.000  -15.765915842  -47.872178566  1053.5242   5  12   3.4726   3.9536   9.3377   1.5678  -1.6535  -0.8365   0.00    0.0
2078 583764.000  -15.765916776  -47.872178456  1053.2246   5  12   3.4726   3.9536   9.3364   1.5677  -1.6512  -0.8371   0.00    0.0
2078 583765.000  -15.765919117  -47.872178794  1053.0657   5  12   3.4725   3.9535   9.3352   1.5676  -1.6490  -0.8376   0.00    0.0
2078 583766.000  -15.765920282  -47.872179528  1052.7999   5  12   3.4725   3.9535   9.3339   1.5676  -1.6468  -0.8381   0.00    0.0
2078 583767.000  -15.765921666  -47.872181284  1052.1165   5  12   3.4724   3.9534   9.3326   1.5675  -1.6445  -0.8386   0.00    0.0
2078 583768.000  -15.765922333  -47.872180886  1052.0188   5  12   3.4723   3.9534   9.3314   1.5674  -1.6423  -0.8391   0.00    0.0
2078 583769.000  -15.765922926  -47.872180173  1051.5433   5  12   3.4723   3.9533   9.3301   1.5673  -1.6401  -0.8396   0.00    0.0
2078 583770.000  -15.765921736  -47.872180543  1051.8467   5  12   3.4722   3.9533   9.3288   1.5673  -1.6378  -0.8401   0.00    0.0
2078 583771.000  -15.765921418  -47.872180654  1052.2060   5  12   3.4722   3.9532   9.3275   1.5672  -1.6356  -0.8406   0.00    0.0
2078 583772.000  -15.765918014  -47.872178662  1052.1769   5  12   3.4721   3.9532   9.3263   1.5671  -1.6333  -0.8411   0.00    0.0
2078 583773.000  -15.765919299  -47.872179982  1052.4186   5  12   3.4721   3.9531   9.3250   1.5670  -1.6311  -0.8416   0.00    0.0
2078 583774.000  -15.765920777  -47.872177582  1052.7245   5  12   3.4720   3.9531   9.3237   1.5669  -1.6288  -0.8421   0.00    0.0
2078 583775.000  -15.765934672  -47.872181342  1053.9128   5  12   3.4719   3.9530   9.3225   1.5669  -1.6266  -0.8426   0.00    0.0
2078 583776.000  -15.765911303  -47.872178710  1052.2143   5  12   3.4719   3.9530   9.3212   1.5668  -1.6243  -0.8431   0.00    0.0
2078 583777.000  -15.765914207  -47.872178511  1053.3212   5  12   3.4718   3.9529   9.3199   1.5667  -1.6221  -0.8436   0.00    0.0
2078 583778.000  -15.765909658  -47.872179128  1052.6255   5  12   3.4718   3.9529   9.3187   1.5666  -1.6198  -0.8441   0.00    0.0
2078 583779.000  -15.765908683  -47.872179671  1052.8069   5  12   3.4717   3.9528   9.3174   1.5666  -1.6176  -0.8446   0.00    0.0
2078 583780.000  -15.765912698  -47.872181352  1052.9915   5  12   3.4717   3.9528   9.3161   1.5665  -1.6153  -0.8451   0.00    0.0
2078 583781.000  -15.765917274  -47.872182172  1053.4702   5  12   3.4716   3.9527   9.3149   1.5664  -1.6130  -0.8456   0.00    0.0
2078 583782.000  -15.765918953  -47.872182383  1053.8379   5  12   3.4715   3.9527   9.3136   1.5663  -1.6108  -0.8461   0.00    0.0
2078 583783.000  -15.765918593  -47.872184587  1053.7481   5  12   3.4715   3.9526   9.3123   1.5662  -1.6085  -0.8465   0.00    0.0
2078 583784.000  -15.765917546  -47.872187354  1053.5957   5  12   3.4714   3.9526   9.3111   1.5662  -1.6062  -0.8470   0.00    0.0
2078 583785.000  -15.765916671  -47.872188843  1053.8621   5  12   3.4714   3.9525   9.3098   1.5661  -1.6040  -0.8475   0.00    0.0
2078 583786.000  -15.765917922  -47.872187481  1053.2158   5  12   3.4713   3.9525   9.3085   1.5660  -1.6017  -0.8480   0.00    0.0
2078 583787.000  -15.765917066  -47.872185893  1053.1542   5  12   3.4712   3.9525   9.3073   1.5659  -1.5994  -0.8485   0.00    0.0
2078 583788.000  -15.765919506  -47.872186463  1053.2185   5  12   3.4712   3.9524   9.3060   1.5658  -1.5971  -0.8490   0.00    0.0
2078 583789.000  -15.765920445  -47.872186415  1053.3826   5  12   3.4711   3.9524   9.3047   1.5658  -1.5948  -0.8494   0.00    0.0
2078 583790.000  -15.765920582  -47.872185105  1053.3284   5  12   3.4711   3.9523   9.3035   1.5657  -1.5925  -0.8499   0.00    0.0
2078 583791.000  -15.765920491  -47.872184170  1052.8405   5  12   3.4710   3.9523   9.3022   1.5656  -1.5903  -0.8504   0.00    0.0
2078 583792.000  -15.765921286  -47.872184483  1052.8113   5  12   3.4710   3.9522   9.3010   1.5655  -1.5880  -0.8509   0.00    0.0
2078 583793.000  -15.765921847  -47.872183428  1053.1315   5  12   3.4709   3.9522   9.2997   1.5654  -1.5857  -0.8513   0.00    0.0
2078 583794.000  -15.765921003  -47.872183846  1053.5711   5  12   3.4708   3.9521   9.2984   1.5654  -1.5834  -0.8518   0.00    0.0
2078 583795.000  -15.765919683  -47.872181702  1053.5941   5  12   3.4708   3.9521   9.2972   1.5653  -1.5811  -0.8523   0.00    0.0
2078 583796.000  -15.765919790  -47.872180053  1053.3023   5  12   3.4707   3.9520   9.2959   1.5652  -1.5788  -0.8527   0.00    0.0
2078 583797.000  -15.765920159  -47.872181190  1053.2375   5  12   3.4707   3.9520   9.2947   1.5651  -1.5765  -0.8532   0.00    0.0
2078 583798.000  -15.765919626  -47.872180483  1052.7700   5  12   3.4706   3.9519   9.2934   1.5650  -1.5742  -0.8537   0.00    0.0
2078 583799.000  -15.765919430  -47.872179006  1052.9394   5  12   3.4705   3.9519   9.2921   1.5650  -1.5719  -0.8541   0.00    0.0
2078 583800.000  -15.765917979  -47.872177891  1052.7274   5  12   3.4705   3.9519   9.2909   1.5649  -1.5695  -0.8546   0.00    0.0
2078 583801.000  -15.765917201  -47.872176883  1052.5231   5  12   3.4704   3.9518   9.2896   1.5648  -1.5672  -0.8551   0.00    0.0
2078 583802.000  -15.765918602  -47.872176551  1052.7339   5  12   3.4704   3.9518   9.2884   1.5647  -1.5649  -0.8555   0.00    0.0
2078 583803.000  -15.765919382  -47.872175828  1053.0131   5  12   3.4703   3.9517   9.2871   1.5646  -1.5626  -0.8560   0.00    0.0
2078 583804.000  -15.765919288  -47.872176042  1052.3947   5  12   3.4703   3.9517   9.2858   1.5646  -1.5603  -0.8565   0.00    0.0
2078 583805.000  -15.765918922  -47.872175690  1052.1543   5  12   3.4702   3.9516   9.2846   1.5645  -1.5579  -0.8569   0.00    0.0
2078 583806.000  -15.765918784  -47.872177602  1053.1205   5  12   3.4701   3.9516   9.2833   1.5644  -1.5556  -0.8574   0.00    0.0
2078 583807.000  -15.765920091  -47.872179814  1054.3785   5  12   3.4701   3.9515   9.2821   1.5643  -1.5533  -0.8578   0.00    0.0
2078 583808.000  -15.765921115  -47.872180541  1053.6400   5  12   3.4700   3.9515   9.2808   1.5642  -1.5510  -0.8583   0.00    0.0
2078 583809.000  -15.765921812  -47.872184057  1054.4094   5  12   3.4700   3.9515   9.2795   1.5641  -1.5486  -0.8587   0.00    0.0
2078 583810.000  -15.765922533  -47.872183089  1053.8307   5  12   3.4699   3.9514   9.2783   1.5641  -1.5463  -0.8592   0.00    0.0
2078 583811.000  -15.765922279  -47.872186321  1054.6414   5  12   3.4698   3.9514   9.2770   1.5640  -1.5439  -0.8596   0.00    0.0
2078 583812.000  -15.765922257  -47.872183591  1054.4730   5  12   3.4698   3.9513   9.2758   1.5639  -1.5416  -0.8601   0.00    0.0
2078 583813.000  -15.765920849  -47.872187018  1055.6223   5  12   3.4697   3.9513   9.2745   1.5638  -1.5393  -0.8605   0.00    0.0
2078 583814.000  -15.765921774  -47.872185343  1055.4765   5  12   3.4697   3.9512   9.2733   1.5637  -1.5369  -0.8610   0.00    0.0
2078 583815.000  -15.765922141  -47.872186493  1055.4961   5  12   3.4696   3.9512   9.2720   1.5637  -1.5346  -0.8614   0.00    0.0
2078 583816.000  -15.765921786  -47.872187581  1055.4229   5  12   3.4696   3.9512   9.2708   1.5636  -1.5322  -0.8618   0.00    0.0
2078 583817.000  -15.765921454  -47.872188540  1055.2585   5  12   3.4695   3.9511   9.2695   1.5635  -1.5298  -0.8623   0.00    0.0
2078 583818.000  -15.765919589  -47.872188909  1054.8914   5  12   3.4694   3.9511   9.2683   1.5634  -1.5275  -0.8627   0.00    0.0
2078 583819.000  -15.765920988  -47.872188323  1054.5497   5  12   3.4694   3.9510   9.2670   1.5633  -1.5251  -0.8632   0.00    0.0
2078 583820.000  -15.765918507  -47.872187394  1054.6884   5  12   3.4693   3.9510   9.2657   1.5632  -1.5228  -0.8636   0.00    0.0
2078 583821.000  -15.765916588  -47.872186431  1054.5102   5  12   3.4693   3.9509   9.2645   1.5632  -1.5204  -0.8640   0.00    0.0
2078 583822.000  -15.765916075  -47.872187964  1054.9172   5  12   3.4692   3.9509   9.2632   1.5631  -1.5180  -0.8645   0.00    0.0
2078 583823.000  -15.765914981  -47.872187693  1054.8666   5  12   3.4691   3.9509   9.2620   1.5630  -1.5156  -0.8649   0.00    0.0
2078 583824.000  -15.765914396  -47.872187273  1054.9427   5  12   3.4691   3.9508   9.2607   1.5629  -1.5133  -0.8653   0.00    0.0
2078 583825.000  -15.765914779  -47.872189243  1055.0117   5  12   3.4690   3.9508   9.2595   1.5628  -1.5109  -0.8658   0.00    0.0
2078 583826.000  -15.765913731  -47.872188854  1054.9696   5  12   3.4690   3.9507   9.2582   1.5627  -1.5085  -0.8662   0.00    0.0
2078 583827.000  -15.765913545  -47.872188743  1055.4329   5  12   3.4689   3.9507   9.2570   1.5626  -1.5061  -0.8666   0.00    0.0
2078 583828.000  -15.765912152  -47.872189060  1055.2797   5  12   3.4688   3.9507   9.2557   1.5626  -1.5037  -0.8671   0.00    0.0
2078 583829.000  -15.765911700  -47.872191191  1055.4195   5  12   3.4688   3.9506   9.2545   1.5625  -1.5013  -0.8675   0.00    0.0
2078 583830.000  -15.765912834  -47.872192151  1055.4198   5  12   3.4687   3.9506   9.2532   1.5624  -1.4989  -0.8679   0.00    0.0
2078 583831.000  -15.765912404  -47.872190443  1055.7131   5  12   3.4687   3.9505   9.2520   1.5623  -1.4966  -0.8683   0.00    0.0
2078 583832.000  -15.765912462  -47.872190527  1055.0720   5  12   3.4686   3.9505   9.2507   1.5622  -1.4942  -0.8688   0.00    0.0
2078 583833.000  -15.765910764  -47.872191833  1054.5706   5  12   3.4686   3.9505   9.2495   1.5621  -1.4917  -0.8692   0.00    0.0
2078 583834.000  -15.765910930  -47.872192032  1054.2887   5  12   3.4685   3.9504   9.2483   1.5621  -1.4893  -0.8696   0.00    0.0
2078 583835.000  -15.765909574  -47.872192136  1053.6797   5  12   3.4684   3.9504   9.2470   1.5620  -1.4869  -0.8700   0.00    0.0
2078 583836.000  -15.765909961  -47.872193315  1052.9938   5  12   3.4684   3.9503   9.2458   1.5619  -1.4845  -0.8704   0.00    0.0
2078 583837.000  -15.765909812  -47.872192905  1053.2971   5  12   3.4683   3.9503   9.2445   1.5618  -1.4821  -0.8708   0.00    0.0
2078 583838.000  -15.765909810  -47.872191110  1053.2935   5  12   3.4683   3.9503   9.2433   1.5617  -1.4797  -0.8713   0.00    0.0
2078 583839.000  -15.765911219  -47.872191820  1053.6821   5  12   3.4682   3.9502   9.2420   1.5616  -1.4773  -0.8717   0.00    0.0
2078 583840.000  -15.765911238  -47.872192610  1053.7335   5  12   3.4681   3.9502   9.2408   1.5615  -1.4748  -0.8721   0.00    0.0
2078 583841.000  -15.765913000  -47.872194075  1053.3884   5  12   3.4681   3.9502   9.2395   1.5615  -1.4724  -0.8725   0.00    0.0
2078 583842.000  -15.765913750  -47.872191942  1053.2048   5  12   3.4680   3.9501   9.2383   1.5614  -1.4700  -0.8729   0.00    0.0
2078 583843.000  -15.765915651  -47.872191627  1053.0408   5  12   3.4680   3.9501   9.2370   1.5613  -1.4676  -0.8733   0.00    0.0
2078 583844.000  -15.765916085  -47.872191478  1052.8999   5  12   3.4679   3.9500   9.2358   1.5612  -1.4651  -0.8737   0.00    0.0
2078 583845.000  -15.765916829  -47.872189908  1052.3733   5  12   3.4678   3.9500   9.2346   1.5611  -1.4627  -0.8741   0.00    0.0
2078 583846.000  -15.765918928  -47.872190782  1052.2741   5  12   3.4678   3.9500   9.2333   1.5610  -1.4602  -0.8745   0.00    0.0
2078 583847.000  -15.765918786  -47.872190076  1051.8863   5  12   3.4677   3.9499   9.2321   1.5609  -1.4578  -0.8749   0.00    0.0
2078 583848.000  -15.765918238  -47.872189517  1051.9324   5  12   3.4677   3.9499   9.2308   1.5609  -1.4554  -0.8753   0.00    0.0
2078 583849.000  -15.765919678  -47.872188196  1051.7625   5  12   3.4676   3.9499   9.2296   1.5608  -1.4529  -0.8757   0.00    0.0
2078 583850.000  -15.765920062  -47.872189916  1051.5215   5  12   3.4675   3.9498   9.2283   1.5607  -1.4504  -0.8761   0.00    0.0
2078 583851.000  -15.765919530  -47.872190265  1051.2550   5  12   3.4675   3.9498   9.2271   1.5606  -1.4480  -0.8765   0.00    0.0
2078 583852.000  -15.765920129  -47.872191771  1051.3977   5  12   3.4674   3.9497   9.2259   1.5605  -1.4455  -0.8769   0.00    0.0
2078 583853.000  -15.765920453  -47.872190425  1051.6189   5  12   3.4674   3.9497   9.2246   1.5604  -1.4431  -0.8773   0.00    0.0
2078 583854.000  -15.765920649  -47.872192968  1051.6843   5  11   3.4815   4.4739   9.2246   1.7591  -1.3260  -0.8503   0.00    0.0
2078 583855.000  -15.765920988  -47.872195340  1051.5652   5  12   3.4673   3.9496   9.2221   1.5602  -1.4381  -0.8781   0.00    0.0
2078 583856.000  -15.765922185  -47.872192871  1051.8846   5  11   3.4813   4.4735   9.2222   1.7584  -1.3192  -0.8508   0.00    0.0
2078 583857.000  -15.765923338  -47.872196900  1051.9573   5  12   3.4671   3.9496   9.2197   1.5601  -1.4332  -0.8789   0.00    0.0
2078 583858.000  -15.765928424  -47.872186331  1049.8890   5  12   3.4671   3.9495   9.2184   1.5600  -1.4307  -0.8793   0.00    0.0
2078 583859.000  -15.765924221  -47.872189696  1051.8531   5  12   3.4670   3.9495   9.2172   1.5599  -1.4282  -0.8797   0.00    0.0
2078 583860.000  -15.765924608  -47.872190843  1051.3956   5  12   3.4670   3.9495   9.2159   1.5598  -1.4257  -0.8800   0.00    0.0
2078 583861.000  -15.765930970  -47.872197091  1052.6750   5  12   3.4669   3.9494   9.2147   1.5597  -1.4232  -0.8804   0.00    0.0
2078 583862.000  -15.765921087  -47.872197973  1051.4590   5  12   3.4668   3.9494   9.2135   1.5596  -1.4207  -0.8808   0.00    0.0
2078 583863.000  -15.765926406  -47.872190022  1049.7668   5  12   3.4668   3.9494   9.2122   1.5595  -1.4182  -0.8812   0.00    0.0
2078 583864.000  -15.765934923  -47.872193255  1050.2242   5  12   3.4667   3.9493   9.2110   1.5595  -1.4157  -0.8816   0.00    0.0
2078 583865.000  -15.765929655  -47.872194928  1050.3816   5  12   3.4667   3.9493   9.2098   1.5594  -1.4132  -0.8820   0.00    0.0
2078 583866.000  -15.765928369  -47.872194872  1050.8432   5  12   3.4666   3.9493   9.2085   1.5593  -1.4107  -0.8823   0.00    0.0
2078 583867.000  -15.765934147  -47.872187388  1046.8221   5  11   3.7917   4.2200  11.2184   0.3823  -3.3936   3.0110   0.00    0.0
2078 583868.000  -15.765932318  -47.872191201  1046.2630   5  11   3.7916   4.2199  11.2170   0.3831  -3.3919   3.0106   0.00    0.0
2078 583869.000  -15.765933147  -47.872191844  1046.1235   5  11   3.7915   4.2197  11.2156   0.3838  -3.3903   3.0102   0.00    0.0
2078 583870.000  -15.765931700  -47.872189582  1045.6611   5  11   3.7914   4.2195  11.2141   0.3846  -3.3887   3.0098   0.00    0.0
2078 583871.000  -15.765929754  -47.872188409  1045.7830   5  11   3.7913   4.2193  11.2127   0.3853  -3.3871   3.0094   0.00    0.0
2078 583872.000  -15.765930501  -47.872187845  1045.4442   5  11   3.7912   4.2191  11.2113   0.3860  -3.3854   3.0090   0.00    0.0
2078 583873.000  -15.765928341  -47.872185888  1044.7482   5  11   3.7911   4.2189  11.2098   0.3868  -3.3838   3.0085   0.00    0.0
2078 583874.000  -15.765928430  -47.872186062  1044.7070   5  11   3.7910   4.2187  11.2084   0.3875  -3.3822   3.0081   0.00    0.0
2078 583875.000  -15.765929471  -47.872187669  1044.9258   5  11   3.7909   4.2185  11.2070   0.3883  -3.3806   3.0077   0.00    0.0
2078 583876.000  -15.765933794  -47.872190501  1044.5020   5  11   3.7908   4.2183  11.2056   0.3890  -3.3789   3.0073   0.00    0.0
2078 583877.000  -15.765922158  -47.872182070  1044.6346   5  11   3.7907   4.2182  11.2041   0.3897  -3.3773   3.0069   0.00    0.0
2078 583878.000  -15.765923296  -47.872180845  1044.7443   5  11   3.7906   4.2180  11.2027   0.3905  -3.3757   3.0065   0.00    0.0
2078 583879.000  -15.765930380  -47.872186329  1044.8651   5  11   3.7905   4.2178  11.2013   0.3912  -3.3740   3.0060   0.00    0.0
2078 583880.000  -15.765932505  -47.872190362  1045.2575   5  11   3.7904   4.2176  11.1998   0.3919  -3.3724   3.0056   0.00    0.0
2078 583881.000  -15.765932090  -47.872191103  1045.3062   5  11   3.7903   4.2174  11.1984   0.3927  -3.3708   3.0052   0.00    0.0
2078 583882.000  -15.765932750  -47.872191030  1045.2904   5  11   3.7902   4.2172  11.1970   0.3934  -3.3692   3.0048   0.00    0.0
2078 583883.000  -15.765932057  -47.872190083  1045.7517   5  11   3.7901   4.2170  11.1956   0.3941  -3.3675   3.0044   0.00    0.0
2078 583884.000  -15.765931884  -47.872189016  1046.1264   5  11   3.7900   4.2169  11.1941   0.3948  -3.3659   3.0040   0.00    0.0
2078 583885.000  -15.765930751  -47.872189222  1046.4373   5  11   3.7899   4.2167  11.1927   0.3955  -3.3643   3.0036   0.00    0.0
2078 583886.000  -15.765929771  -47.872189189  1045.9528   5  11   3.7898   4.2165  11.1913   0.3963  -3.3626   3.0032   0.00    0.0
2078 583887.000  -15.765928190  -47.872188170  1046.3510   5  11   3.7896   4.2163  11.1899   0.3970  -3.3610   3.0027   0.00    0.0
2078 583888.000  -15.765927404  -47.872186642  1046.7871   5  11   3.7895   4.2161  11.1884   0.3977  -3.3594   3.0023   0.00    0.0
2078 583889.000  -15.765927660  -47.872186627  1046.2897   5  11   3.7894   4.2159  11.1870   0.3984  -3.3577   3.0019   0.00    0.0
2078 583890.000  -15.765927673  -47.872184583  1046.0979   5  11   3.7893   4.2157  11.1856   0.3991  -3.3561   3.0015   0.00    0.0
2078 583891.000  -15.765928135  -47.872182632  1045.9846   5  11   3.7892   4.2156  11.1841   0.3998  -3.3545   3.0011   0.00    0.0
2078 583892.000  -15.765928665  -47.872181239  1045.2663   5  11   3.7891   4.2154  11.1827   0.4005  -3.3528   3.0007   0.00    0.0
2078 583893.000  -15.765926783  -47.872178585  1045.2362   5  11   3.7890   4.2152  11.1813   0.4012  -3.3512   3.0003   0.00    0.0
2078 583894.000  -15.765926759  -47.872177237  1045.3976   5  11   3.7889   4.2150  11.1799   0.4019  -3.3496   2.9999   0.00    0.0
2078 583895.000  -15.765925772  -47.872175394  1046.1558   5  11   3.7888   4.2148  11.1784   0.4026  -3.3480   2.9994   0.00    0.0
2078 583896.000  -15.765924124  -47.872174678  1046.5844   5  11   3.7887   4.2146  11.1770   0.4033  -3.3463   2.9990   0.00    0.0
2078 583897.000  -15.765924873  -47.872175082  1047.1835   5  11   3.7886   4.2145  11.1756   0.4040  -3.3447   2.9986   0.00    0.0
2078 583898.000  -15.765924344  -47.872176063  1047.3056   5  11   3.7885   4.2143  11.1742   0.4047  -3.3430   2.9982   0.00    0.0
2078 583899.000  -15.765923222  -47.872177438  1047.9889   5  11   3.7884   4.2141  11.1728   0.4054  -3.3414   2.9978   0.00    0.0
2078 583900.000  -15.765922955  -47.872177321  1048.0248   5  11   3.7883   4.2139  11.1713   0.4061  -3.3398   2.9974   0.00    0.0
2078 583901.000  -15.765922305  -47.872179684  1048.8141   5  11   3.7882   4.2137  11.1699   0.4068  -3.3381   2.9970   0.00    0.0
2078 583902.000  -15.765920163  -47.872181693  1049.3790   5  11   3.7881   4.2135  11.1685   0.4075  -3.3365   2.9966   0.00    0.0
2078 583903.000  -15.765919821  -47.872182204  1050.1416   5  11   3.7880   4.2134  11.1671   0.4081  -3.3349   2.9962   0.00    0.0
2078 583904.000  -15.765918439  -47.872183351  1050.5948   5  11   3.7879   4.2132  11.1656   0.4088  -3.3332   2.9958   0.00    0.0
2078 583905.000  -15.765918715  -47.872184629  1050.8961   5  11   3.7878   4.2130  11.1642   0.4095  -3.3316   2.9954   0.00    0.0
2078 583906.000  -15.765916478  -47.872185685  1051.5414   5  11   3.7877   4.2128  11.1628   0.4102  -3.3300   2.9949   0.00    0.0
2078 583907.000  -15.765915617  -47.872186634  1052.0117   5  11   3.7876   4.2126  11.1614   0.4109  -3.3283   2.9945   0.00    0.0
2078 583908.000  -15.765914752  -47.872187486  1052.2056   5  11   3.7875   4.2125  11.1599   0.4115  -3.3267   2.9941   0.00    0.0
2078 583909.000  -15.765914439  -47.872185945  1052.1049   5  11   3.7874   4.2123  11.1585   0.4122  -3.3250   2.9937   0.00    0.0
2078 583910.000  -15.765913146  -47.872187366  1051.9953   5  11   3.7873   4.2121  11.1571   0.4129  -3.3234   2.9933   0.00    0.0
2078 583911.000  -15.765912056  -47.872188775  1052.1063   5  11   3.7872   4.2119  11.1557   0.4136  -3.3218   2.9929   0.00    0.0
2078 583912.000  -15.765913112  -47.872188671  1051.5481   5  11   3.7871   4.2117  11.1543   0.4142  -3.3201   2.9925   0.00    0.0
2078 583913.000  -15.765913520  -47.872189883  1051.6426   5  11   3.7870   4.2116  11.1528   0.4149  -3.3185   2.9921   0.00    0.0
2078 583914.000  -15.765914476  -47.872188899  1051.2778   5  11   3.7869   4.2114  11.1514   0.4156  -3.3168   2.9917   0.00    0.0
2078 583915.000  -15.765913781  -47.872189255  1051.3092   5  11   3.7868   4.2112  11.1500   0.4162  -3.3152   2.9913   0.00    0.0
2078 583916.000  -15.765914719  -47.872188703  1051.3210   5  11   3.7867   4.2110  11.1486   0.4169  -3.3136   2.9909   0.00    0.0
2078 583917.000  -15.765916411  -47.872188848  1050.7790   5  11   3.7866   4.2108  11.1472   0.4175  -3.3119   2.9905   0.00    0.0
2078 583918.000  -15.765917258  -47.872188660  1051.0551   5  11   3.7865   4.2107  11.1457   0.4182  -3.3103   2.9901   0.00    0.0
2078 583919.000  -15.765916529  -47.872188288  1051.4171   5  11   3.7864   4.2105  11.1443   0.4189  -3.3086   2.9897   0.00    0.0
2078 583920.000  -15.765916567  -47.872188550  1051.8671   5  11   3.7863   4.2103  11.1429   0.4195  -3.3070   2.9893   0.00    0.0
2078 583921.000  -15.765917525  -47.872188925  1052.7256   5  11   3.7862   4.2101  11.1415   0.4202  -3.3054   2.9889   0.00    0.0
2078 583922.000  -15.765918585  -47.872189021  1052.6674   5  11   3.7861   4.2099  11.1401   0.4208  -3.3037   2.9885   0.00    0.0
2078 583923.000  -15.765919764  -47.872188158  1053.2667   5  11   3.7860   4.2098  11.1386   0.4215  -3.3021   2.9880   0.00    0.0
2078 583924.000  -15.765920239  -47.872186685  1053.4654   5  11   3.7859   4.2096  11.1372   0.4221  -3.3004   2.9876   0.00    0.0
2078 583925.000  -15.765922160  -47.872186342  1053.4559   5  11   3.7858   4.2094  11.1358   0.4228  -3.2988   2.9872   0.00    0.0
2078 583926.000  -15.765922735  -47.872183537  1053.2910   5  11   3.7857   4.2092  11.1344   0.4234  -3.2972   2.9868   0.00    0.0
2078 583927.000  -15.765921110  -47.872179382  1053.2071   5  11   3.7856   4.2091  11.1330   0.4240  -3.2955   2.9864   0.00    0.0
2078 583928.000  -15.765921787  -47.872178412  1053.3184   5  11   3.7855   4.2089  11.1316   0.4247  -3.2939   2.9860   0.00    0.0
2078 583929.000  -15.765920525  -47.872177372  1053.0459   5  11   3.7854   4.2087  11.1301   0.4253  -3.2922   2.9856   0.00    0.0
2078 583930.000  -15.765920902  -47.872175298  1052.2372   5  11   3.7853   4.2085  11.1287   0.4260  -3.2906   2.9852   0.00    0.0
2078 583931.000  -15.765921458  -47.872175043  1051.7571   5  11   3.7852   4.2084  11.1273   0.4266  -3.2889   2.9848   0.00    0.0
2078 583932.000  -15.765920927  -47.872173611  1051.6710   5  11   3.7851   4.2082  11.1259   0.4272  -3.2873   2.9844   0.00    0.0
2078 583933.000  -15.765921583  -47.872171922  1051.3112   5  11   3.7850   4.2080  11.1245   0.4279  -3.2856   2.9840   0.00    0.0
2078 583934.000  -15.765920749  -47.872171247  1050.9155   5  11   3.7849   4.2078  11.1231   0.4285  -3.2840   2.9836   0.00    0.0
2078 583935.000  -15.765919927  -47.872170368  1050.5058   5  11   3.7848   4.2077  11.1216   0.4291  -3.2824   2.9832   0.00    0.0
2078 583936.000  -15.765918803  -47.872168794  1050.0769   5  11   3.7847   4.2075  11.1202   0.4298  -3.2807   2.9828   0.00    0.0
2078 583937.000  -15.765917505  -47.872166407  1050.1176   5  11   3.7846   4.2073  11.1188   0.4304  -3.2791   2.9824   0.00    0.0
2078 583938.000  -15.765916411  -47.872164985  1050.2317   5  11   3.7845   4.2071  11.1174   0.4310  -3.2774   2.9820   0.00    0.0
2078 583939.000  -15.765915225  -47.872162927  1049.8745   5  11   3.7844   4.2070  11.1160   0.4316  -3.2758   2.9816   0.00    0.0
2078 583940.000  -15.765914183  -47.872161726  1049.7529   5  11   3.7843   4.2068  11.1146   0.4323  -3.2741   2.9812   0.00    0.0
2078 583941.000  -15.765914303  -47.872163226  1049.3537   5  11   3.7842   4.2066  11.1132   0.4329  -3.2725   2.9808   0.00    0.0
2078 583942.000  -15.765914790  -47.872165039  1049.6583   5  11   3.7841   4.2064  11.1117   0.4335  -3.2708   2.9804   0.00    0.0
2078 583943.000  -15.765915786  -47.872167846  1049.1836   5  11   3.7840   4.2063  11.1103   0.4341  -3.2692   2.9800   0.00    0.0
2078 583944.000  -15.765916229  -47.872165963  1048.6932   5  11   3.7839   4.2061  11.1089   0.4347  -3.2675   2.9796   0.00    0.0
2078 583945.000  -15.765915545  -47.872167165  1049.4641   5  11   3.7838   4.2059  11.1075   0.4354  -3.2659   2.9792   0.00    0.0
